{"meta":{"generated":"2026-02-26T13:31:44.472222","total_venues":931,"source":"CineScope Geocoder \u2014 deduplicated","note":"Deduplicated from 1,060 to unique coordinates. Entries with placeId preferred."},"venues":[{"name":"ARC Stockton Arts Centre","city":"Stockton on Tees","country":"United Kingdom","chain":"Arc ","category":"Small Chain","lat":54.5643168,"lng":-1.3153305,"address":"Dovecot St, Stockton-on-Tees TS18 1LL, UK","placeId":"ChIJzz9Gf_uSfkgRhaTByfSt7LM"},{"name":"Arc Daventry","city":"Daventry","country":"United Kingdom","chain":"Arc ","category":"Small Chain","lat":52.2587061,"lng":-1.1621438,"address":"Mulberry Place, Daventry NN11 4GH, UK","placeId":"ChIJnaSR9-4_d0gRL7uaxrPPFMo"},{"name":"Arc Drogheda","city":"Drogheda","country":"Ireland","chain":"Arc ","category":"Small Chain","lat":53.7148729,"lng":-6.3522854,"address":"Unit 12, West St, Moneymore, Drogheda, Co. Louth, A92 XY48, Ireland","placeId":"ChIJGb7lTic6Z0gRRiWNFfINmIY"},{"name":"Arc Navan","city":"Navan","country":"Ireland","chain":"Arc ","category":"Small Chain","lat":53.6537592,"lng":-6.6852299,"address":"The Arc Arena, Navan Shopping Centre, Kennedy Rd, Abbeyland South, Navan, Co. Meath, Ireland","placeId":"ChIJ0ZMtvetbZ0gRxngvPjzMUY0"},{"name":"Arc Peterhead","city":"Peterhead","country":"United Kingdom","chain":"Arc ","category":"Small Chain","lat":57.5048679,"lng":-1.7808612,"address":"63 Marischal St, Peterhead AB42 1PR, UK","placeId":"ChIJv-3NQCiEg0gRcRceoJHSGRk"},{"name":"Arc Wexford","city":"Wexford Town","country":"Ireland","chain":"Arc ","category":"Small Chain","lat":52.3435749,"lng":-6.4656653,"address":"Redmond Square, Townparks, Wexford, Y35 TF25, Ireland","placeId":"ChIJ0XqLS0UbaEgRWH7j2UobpAI"},{"name":"Arc Cinema Beeston Nottingham","city":"Nottingham","country":"United Kingdom","chain":"Arc Cinema","category":"Small Chain","lat":52.9256678,"lng":-1.2146233,"address":"2 Station Rd, Beeston, Nottingham NG9 2WJ, UK","placeId":"ChIJ5WHuZdDpeUgR95MKmj5_qUo"},{"name":"Arc Cinema Great Yarmouth","city":"Great Yarmouth","country":"United Kingdom","chain":"Arc Cinema","category":"Small Chain","lat":52.6091227,"lng":1.7370861,"address":"Marine Parade, Great Yarmouth NR30 2DL, UK","placeId":"ChIJqazI0QcH2kcRIzGhv1kxLLQ"},{"name":"Arc Cinema Hucknall Nottingham","city":"Nottingham","country":"United Kingdom","chain":"Arc Cinema","category":"Small Chain","lat":53.0369548,"lng":-1.2008125,"address":"The Byron, High St, Hucknall, Nottingham NG15 7HJ, UK","placeId":"ChIJlwLTa9XDeUgRR1ecUYThbpM"},{"name":"Arc Cinema Preston","city":"Preston","country":"United Kingdom","chain":"Arc Cinema","category":"Small Chain","lat":53.7608684,"lng":-2.6992095,"address":"Animate, Tenterfield St, Preston PR1 2BL, UK","placeId":"ChIJucV2DZFze0gRwbsME5XI6Mk"},{"name":"Arc Cinema Rotherham","city":"Rotherham","country":"United Kingdom","chain":"Arc Cinema","category":"Small Chain","lat":53.4308918,"lng":-1.3600922,"address":"Forge Island, Bridge St, Rotherham S60 1QJ, UK","placeId":"ChIJXUd4TQB3eUgRxQvGeeYY7hE"},{"name":"Cineworld Aberdeen Queens Link","city":"Aberdeen","country":"United Kingdom","chain":"Cineworld","category":"Large Chain","lat":57.1501169,"lng":-2.0788411,"address":"Queens Link Leisure Park, Links Rd, Aberdeen AB24 5EN, UK","placeId":"ChIJDwrDI0IOhEgR_H8iZ8CLc08"},{"name":"Cineworld Aberdeen Union Square","city":"Aberdeen","country":"United Kingdom","chain":"Cineworld","category":"Large Chain","lat":57.1440644,"lng":-2.0964408,"address":"Guild St, Aberdeen AB11 5RG, UK","placeId":"ChIJQS04sjsOhEgRJz-VqJ5JuO4"},{"name":"Cineworld Aldershot","city":"Aldershot","country":"United Kingdom","chain":"Cineworld","category":"Large Chain","lat":51.2498604,"lng":-0.7685967,"address":"Unit 5 Princes Way, Aldershot GU11 1WG, UK","placeId":"ChIJN15kJEIOhEgREN-pZQvOMy8"},{"name":"Cineworld Ashford","city":"Ashford","country":"United Kingdom","chain":"Cineworld","category":"Large Chain","lat":51.1606584,"lng":0.8736794,"address":"Eureka Entertainment Centre, Rutherford Rd, Ashford TN25 4BN, UK","placeId":"ChIJDYEUu27a3kcRpH3iOE_WlTs"},{"name":"Cineworld Ashton-under-Lyne","city":"Ashton-under-Lyne","country":"United Kingdom","chain":"Cineworld","category":"Large Chain","lat":53.4893236,"lng":-2.1100784,"address":"Ashton Mass Leisure Park, Lord Sheldon Way, Fold Way, Ashton-under-Lyne OL7 0PG, UK","placeId":"ChIJ197jho1DcUgRi8vgg2qsivc"},{"name":"Cineworld Barnsley","city":"Barnsley","country":"United Kingdom","chain":"Cineworld","category":"Large Chain","lat":53.5528051,"lng":-1.4781658,"address":"30 & 32 The Glassworks, Barnsley S70 1GW, UK","placeId":"ChIJcUK9e9N6eUgRrFWjO1WjQ0c"},{"name":"Cineworld Basildon","city":"Basildon","country":"United Kingdom","chain":"Cineworld","category":"Large Chain","lat":51.5850866,"lng":0.4625225,"address":"Festival Way, Festival Leisure Park, Festival Way, Basildon SS14 3WB, UK","placeId":"ChIJtVXSHqXG2EcRxaXBn71YjF8"},{"name":"Cineworld Belfast","city":"Belfast","country":"United Kingdom","chain":"Cineworld","category":"Large Chain","lat":54.6040883,"lng":-5.9161803,"address":"Odyssey Place, 2 Queens Quay, Belfast BT3 9QQ, UK","placeId":"ChIJJS2N6ZEJYUgR3iHf_jBK0xs"},{"name":"Cineworld Bexleyheath","city":"Bexleyheath","country":"United Kingdom","chain":"Cineworld","category":"Large Chain","lat":51.4560973,"lng":0.1498987,"address":"28-70 Broadway, Bexleyheath DA6 7RB, UK","placeId":"ChIJqSFp4PG2d0gRpFOIH_n8llw"},{"name":"Cineworld Birmingham Broadstreet","city":"Birmingham","country":"United Kingdom","chain":"Cineworld","category":"Large Chain","lat":52.4742816,"lng":-1.9156694,"address":"181 Broad St, Birmingham B15 1DA, UK","placeId":"ChIJDWnhqSWxcEgRQRlVgacZ7WY"},{"name":"Cineworld Birmingham NEC","city":"Birmingham","country":"United Kingdom","chain":"Cineworld","category":"Large Chain","lat":52.4477486,"lng":-1.7176928,"address":"Resort World, Pendigo Way, Marston Green, Birmingham B40 1PU, UK","placeId":"ChIJcWnleqRad0gRnew_cMN45qo"},{"name":"Cineworld Boldon Tyne and Wear","city":"Boldon Tyne and Wear","country":"United Kingdom","chain":"Cineworld","category":"Large Chain","lat":54.9473059,"lng":-1.4652525,"address":"Boldon Leisure Park, Abingdon Way, Boldon Colliery NE35 9PB, UK","placeId":"ChIJzZSAhHxlfkgRaBTCxaiohsk"},{"name":"Cineworld Bolton","city":"Bolton","country":"United Kingdom","chain":"Cineworld","category":"Large Chain","lat":53.5978001,"lng":-2.4224899,"address":"15 Eagley Brook Way, Bolton BL1 8TS, UK","placeId":"ChIJA6cXyeWme0gRS_IztRcIvrM"},{"name":"Cineworld Bracknell","city":"Bracknell","country":"United Kingdom","chain":"Cineworld","category":"Large Chain","lat":51.4171711,"lng":-0.7507195,"address":"2 Eagle Ln, Bracknell RG12 1BG, UK","placeId":"ChIJWaWJ2Rx-dkgR60sfWuQ3jEQ"},{"name":"Cineworld Bradford","city":"Bradford","country":"United Kingdom","chain":"Cineworld","category":"Large Chain","lat":53.7915304,"lng":-1.7471714,"address":"The Leisure Exchange, Vicar Ln, Bradford BD1 5LD, UK","placeId":"ChIJVbj3j03he0gRQIJKSBZN0Qw"},{"name":"Cineworld Braintree","city":"Braintree","country":"United Kingdom","chain":"Cineworld","category":"Large Chain","lat":51.8675854,"lng":0.5723254,"address":"Charter Way Freeport, Leisure, Braintree CM77 8YH, UK","placeId":"ChIJqTuh_Arw2EcRLefvqM7PvS8"},{"name":"Cineworld Brighton","city":"Brighton","country":"United Kingdom","chain":"Cineworld","category":"Large Chain","lat":50.8126643,"lng":-0.1057367,"address":"Marina, Brighton Marina, Brighton and Hove, Brighton BN2 5UF, UK","placeId":"ChIJi_cBp8-FdUgR5f9GMImSBPQ"},{"name":"Cineworld Broughton","city":"Broughton","country":"United Kingdom","chain":"Cineworld","category":"Large Chain","lat":53.1674253,"lng":-2.9747359,"address":"Broughton shopping park, Chester Rd, Broughton, Bretton, Chester CH4 0DE, UK","placeId":"ChIJRTYgqqfEekgRU74iWTbdJXw"},{"name":"Cineworld Burton Upon Trent","city":"Burton-upon-Trent","country":"United Kingdom","chain":"Cineworld","category":"Large Chain","lat":52.8049495,"lng":-1.6318838,"address":"Middleway Retail Park, Guild St, Burton upon Trent, Burton-on-Trent DE14 1NQ, UK","placeId":"ChIJiYmAw0UCekgR60fW4ti8Vcc"},{"name":"Cineworld Bury St Edmunds","city":"Bury St Edmunds","country":"United Kingdom","chain":"Cineworld","category":"Large Chain","lat":52.2453624,"lng":0.7062713,"address":"Parkway, Bury St Edmunds, Bury Saint Edmunds IP33 3BA, UK","placeId":"ChIJF-Ng7UNM2EcRYl5MqgffFRk"},{"name":"Cineworld Cardiff","city":"Cardiff","country":"United Kingdom","chain":"Cineworld","category":"Large Chain","lat":51.478909,"lng":-3.173021,"address":"Mary Ann St, Cardiff CF10 2EN, UK","placeId":"ChIJnYEo87YcbkgRjwSUBv-bkoE"},{"name":"Cineworld Castleford","city":"Castleford WF10 4TA","country":"United Kingdom","chain":"Cineworld","category":"Large Chain","lat":53.710114,"lng":-1.341311,"address":"Xscape, Colorado Way, Castleford WF10 4TA, UK","notes":"Returned as Vue - Cineworld may have closed/rebranded"},{"name":"Cineworld Cheltenham","city":"Cheltenham","country":"United Kingdom","chain":"Cineworld","category":"Large Chain","lat":51.9030894,"lng":-2.0759644,"address":"The Brewery Quarter, Oxford Passage, Cheltenham GL50 4FA, UK","placeId":"ChIJxQWEpZAbcUgRlGXyf6drjBI"},{"name":"Cineworld Chesterfield","city":"Chesterfield","country":"United Kingdom","chain":"Cineworld","category":"Large Chain","lat":53.2283792,"lng":-1.4225055,"address":"Alma Leisure Park, Derby Rd, Chesterfield S40 2ED, UK","placeId":"ChIJgYXBKEqFeUgRAeGumTtZFcg"},{"name":"Cineworld Chichester","city":"Chichester","country":"United Kingdom","chain":"Cineworld","category":"Large Chain","lat":50.8303419,"lng":-0.7852506,"address":"Chichester Gate, Gate, Chichester PO19 8EL, UK","placeId":"ChIJAwZ7hmJSdEgR6jhpOYjaqLE"},{"name":"Cineworld Crawley","city":"Crawley","country":"United Kingdom","chain":"Cineworld","category":"Large Chain","lat":51.1207726,"lng":-0.1895475,"address":"Crawley Leisure Park, London Rd, Crawley RH10 8LR, UK","placeId":"ChIJxZ1OAirudUgRMAHIqYq8YSI"},{"name":"Cineworld Dalton Park","city":"Dalton Park","country":"United Kingdom","chain":"Cineworld","category":"Large Chain","lat":54.8140717,"lng":-1.3770309,"address":"Dalton Park Outlet, Murton, Seaham SR7 9HU, UK","placeId":"ChIJOQ1xDZthfkgR7O47rVZwjUw"},{"name":"Cineworld Didcot","city":"Didcot","country":"United Kingdom","chain":"Cineworld","category":"Large Chain","lat":51.6072555,"lng":-1.2403434,"address":"27 Station Rd, Didcot OX11 7NE, UK","placeId":"ChIJ50vEs0y5dkgRvFKtFyl9rB4"},{"name":"Cineworld Didsbury","city":"Didsbury","country":"United Kingdom","chain":"Cineworld","category":"Large Chain","lat":53.4097405,"lng":-2.2192326,"address":"Parrs Wood Entertainment Centre, Wilmslow Rd, East Didsbury, Manchester M20 5PG, UK","placeId":"ChIJG06wR16ye0gRv_3vVi3Kvcs"},{"name":"Cineworld Dover","city":"Dover","country":"United Kingdom","chain":"Cineworld","category":"Large Chain","lat":51.1258318,"lng":1.3161261,"address":"James Retail & Leisure Park, Unit 1 St James St, Dover CT16 1QD, UK","placeId":"ChIJd2ClXNSk3kcRDTDpuedFEU4"},{"name":"Cineworld Dublin","city":"Dublin","country":"Ireland","chain":"Cineworld","category":"Large Chain","lat":53.3502218,"lng":-6.2676763,"address":"The Parnell Centre, Parnell St, Rotunda, Dublin, D01 V4Y1, Ireland","placeId":"ChIJrRGxGIIOZ0gRhuM6V5yGYIQ"},{"name":"Cineworld Dundee","city":"Dundee","country":"United Kingdom","chain":"Cineworld","category":"Large Chain","lat":56.4816492,"lng":-3.0235594,"address":"Camperdown Leisure Park, Kingsway W, Dundee DD2 3SQ, UK","placeId":"ChIJRWNfTR5DhkgR1NiHT6C8h6U"},{"name":"Cineworld Eastbourne Beacon","city":"Eastbourne","country":"United Kingdom","chain":"Cineworld","category":"Large Chain","lat":50.7694816,"lng":0.2830129,"address":"The Beacon Shopping Centre, 37 Terminus Rd, Eastbourne BN21 3NW, UK","placeId":"ChIJm8sxvAdz30cRPqX7o7ukRD0"},{"name":"Cineworld Edinburgh","city":"Edinburgh","country":"United Kingdom","chain":"Cineworld","category":"Large Chain","lat":55.9411712,"lng":-3.2182296,"address":"130, 3 Dundee St, Edinburgh EH11 1AF, UK","placeId":"ChIJXz7u36fHh0gR9jjCzXnAx8E"},{"name":"Cineworld Ely","city":"Ely","country":"United Kingdom","chain":"Cineworld","category":"Large Chain","lat":52.4103251,"lng":0.2512579,"address":"Leisure Village, Downham Rd, ELY CB6 2WH, UK","placeId":"ChIJJcQh6K4T2EcRKto7bY8WY84"},{"name":"Cineworld Enfield","city":"Enfield","country":"United Kingdom","chain":"Cineworld","category":"Large Chain","lat":51.6501849,"lng":-0.0608842,"address":"Southbury Leisure Centre, 208 Southbury Rd, Enfield EN1 1YQ, UK","placeId":"ChIJS2BJ9RkfdkgRFE4g19QFjLU"},{"name":"Cineworld Falkirk","city":"Fallkirk","country":"United Kingdom","chain":"Cineworld","category":"Large Chain","lat":56.0028953,"lng":-3.7770544,"address":"Central Retail Park, Old Bison, Falkirk FK1 1LW, UK","placeId":"ChIJJ6y3-S96iEgRaS2NUeIgB4A"},{"name":"Cineworld Feltham","city":"Feltham","country":"United Kingdom","chain":"Cineworld","category":"Large Chain","lat":51.4437893,"lng":-0.4044764,"address":"Leisure west, Air Park Way, Feltham TW13 7LX, UK","placeId":"ChIJOaGAL2lzdkgRQ9RcOKQv1BI"},{"name":"Cineworld Glasgow Renfrew","city":"Glasgow","country":"United Kingdom","chain":"Cineworld","category":"Large Chain","lat":55.8650246,"lng":-4.2544269,"address":"Cineworld, 7 Renfrew St, Glasgow G2 3AB, UK","placeId":"ChIJ2abQECZEiEgRBwy30iZwok0"},{"name":"Cineworld Glasgow Silverburn","city":"Glasgow","country":"United Kingdom","chain":"Cineworld","category":"Large Chain","lat":55.8231207,"lng":-4.3428437,"address":"763 Barrhead Rd, Glasgow G53 6AG, UK","placeId":"ChIJXXZciYRIiEgRYIRJTkGXizg"},{"name":"Cineworld Gloucester Quays","city":"Gloucester","country":"United Kingdom","chain":"Cineworld","category":"Large Chain","lat":51.8606317,"lng":-2.2530911,"address":"Quays Outlet Centre, Merchants' Rd, Gloucester GL1 5SH, UK","placeId":"ChIJEXXEU2kGcUgRHviuku5kGsA"},{"name":"Cineworld Greenwich O2","city":"London","country":"United Kingdom","chain":"Cineworld","category":"Large Chain","lat":51.5031924,"lng":0.0044716,"address":"Peninsula Square, London SE10 0DX, UK","placeId":"ChIJq6qqyh2o2EcRc6Bs3k9PyrM"},{"name":"Cineworld Harlow Harvey Centre","city":"Harlow","country":"United Kingdom","chain":"Cineworld","category":"Large Chain","lat":51.7690844,"lng":0.0912943,"address":"Harvey Shopping Centre, Harlow CM20 1XR, UK","placeId":"ChIJaxgTawCc2EcR_JEUQEPNh4s"},{"name":"Cineworld Harlow Queensgate Centre","city":"Harlow","country":"United Kingdom","chain":"Cineworld","category":"Large Chain","lat":51.784633,"lng":0.1093593,"address":"The Queensgate Centre, Edinburgh Way, Harlow CM20 2DA, UK","placeId":"ChIJl63P4O2b2EcRZU27vfMSsas"},{"name":"Cineworld Haverhill","city":"Haverhill","country":"United Kingdom","chain":"Cineworld","category":"Large Chain","lat":52.0815794,"lng":0.4432465,"address":"Ehringshausen Way, Haverhill CB9 0ER, UK","placeId":"ChIJ73LUUfNe2EcRTCVPz5GCQw8"},{"name":"Cineworld Hemel Hempstead","city":"Hemel Hempstead","country":"United Kingdom","chain":"Cineworld","category":"Large Chain","lat":51.7480472,"lng":-0.4547913,"address":"Jarman Park, Hemel Hempstead HP2 4JW, UK","placeId":"ChIJi5Reu0FBdkgR2ngFqx8s9SU"},{"name":"Cineworld High Wycombe","city":"High Wycombe","country":"United Kingdom","chain":"Cineworld","category":"Large Chain","lat":51.6308282,"lng":-0.7563078,"address":"Denmark St, High Wycombe HP11 2DB, UK","placeId":"ChIJE79VAtdhdkgRaJBRaRvUyhE"},{"name":"Cineworld Hinckley","city":"Hinckley","country":"United Kingdom","chain":"Cineworld","category":"Large Chain","lat":52.5390189,"lng":-1.3736756,"address":"The Crescent, Station Rd, Hinckley LE10 1AW, UK","placeId":"ChIJU_3-eqRad0gR1dKc9MOQxes"},{"name":"Cineworld Hounslow","city":"Hounslow","country":"United Kingdom","chain":"Cineworld","category":"Large Chain","lat":51.4696778,"lng":-0.3620975,"address":"5A Smithy Ln, Hounslow TW3 1EY, UK","placeId":"ChIJmTQB1YkNdkgRSdm8rrhpx-A"},{"name":"Cineworld Hull","city":"Hull","country":"United Kingdom","chain":"Cineworld","category":"Large Chain","lat":53.791368,"lng":-0.3534584,"address":"Kingswood Retail Park, Gibraltar Rd, Hull HU7 3DB, UK","placeId":"ChIJx929QeS-eEgRxrAdNYMNBCk"},{"name":"Cineworld Huntingdon","city":"Huntingdon","country":"United Kingdom","chain":"Cineworld","category":"Large Chain","lat":52.3508469,"lng":-0.1796857,"address":"Tower Fields, Abbots Ripton Rd, Sapley, Huntingdon PE29 7EG, UK","placeId":"ChIJo-zFr1rdd0gRMMR7vNn7x84"},{"name":"Cineworld Ilford","city":"Ilford","country":"United Kingdom","chain":"Cineworld","category":"Large Chain","lat":51.5580115,"lng":0.0746415,"address":"92-114 Clements Rd, Ilford IG1 1BP, UK","placeId":"ChIJZ1XAeoqm2EcRBs-yVi9Beyo"},{"name":"Cineworld Ipswich","city":"Ipswich","country":"United Kingdom","chain":"Cineworld","category":"Large Chain","lat":52.0534757,"lng":1.1497381,"address":"Cardinal Park, 11 Grafton Way, Ipswich IP1 1AX, UK","placeId":"ChIJExxmjSqOYEgRyExSK5jKxY0"},{"name":"Cineworld Jersey","city":"St Helier","country":"United Kingdom","chain":"Cineworld","category":"Large Chain","lat":49.1838507,"lng":-2.1143701,"address":"Waterfront Centre, St Helier, Jersey JE2 4HE"},{"name":"Cineworld Leeds White Rose","city":"Leeds","country":"United Kingdom","chain":"Cineworld","category":"Large Chain","lat":53.7586208,"lng":-1.5757128,"address":"Dewsbury Rd, Leeds LS11 8LU, UK","placeId":"ChIJVVWuNv5peUgRPSoCQJsL59A"},{"name":"Cineworld Leicester Square","city":"London","country":"United Kingdom","chain":"Cineworld","category":"Large Chain","lat":51.5108106,"lng":-0.1304653,"address":"5-6 Leicester Square, London WC2H 7NA, UK","placeId":"ChIJw-wvFdIEdkgRv3GdODKiXOo"},{"name":"Cineworld Llandudno","city":"Llandudno","country":"United Kingdom","chain":"Cineworld","category":"Large Chain","lat":53.2822687,"lng":-3.80844,"address":"Leisure Park, Junction Way, Llandudno Junction LL31 9XX, UK","placeId":"ChIJtWEVkfQeZUgRn8RF62E2A8Q"},{"name":"Cineworld Loughborough","city":"Loughborough LE11 1TH","country":"United Kingdom","chain":"Cineworld","category":"Large Chain","lat":52.7721655,"lng":-1.2035554,"address":"Baxter Gate, Loughborough LE11 1TH, UK"},{"name":"Cineworld Luton","city":"Luton","country":"United Kingdom","chain":"Cineworld","category":"Large Chain","lat":51.8818897,"lng":-0.4178841,"address":"The Galaxy, Bridge St, Luton LU1 2NB, UK","placeId":"ChIJg5BrNUVIdkgRljeR-Uo1MYg"},{"name":"Cineworld Milton Keynes","city":"Milton Keynes","country":"United Kingdom","chain":"Cineworld","category":"Large Chain","lat":52.041198,"lng":-0.7491129,"address":"602 Marlborough Gate, Milton Keynes MK9 3XS, UK","placeId":"ChIJ_1VTvJSqd0gRuRRhXebNebM"},{"name":"Cineworld Newcastle Upon Tyne","city":"Newcastle Upon Tyne","country":"United Kingdom","chain":"Cineworld","category":"Large Chain","lat":54.9724003,"lng":-1.6180268,"address":"The Gate, Newgate St, Newcastle upon Tyne NE1 5TG, UK","placeId":"ChIJIe9VncpwfkgRAHJegJ_Y06Q"},{"name":"Cineworld Newport Isle Of Wight","city":"Isle of Wight","country":"United Kingdom","chain":"Cineworld","category":"Large Chain","lat":50.6991144,"lng":-1.2893871,"address":"Cineworld Cinema, Coppins Bridge, Newport PO30 2TA, UK","placeId":"ChIJSfIyyc1idEgR7w0HCeIWFo4"},{"name":"Cineworld Newport Spytty Park","city":"Newport","country":"United Kingdom","chain":"Cineworld","category":"Large Chain","lat":51.5739519,"lng":-2.9426371,"address":"Spytty Rd, Newport NP19 4QQ, UK","placeId":"ChIJJ0Ax-o7mcUgRvp4WqBcI9lM"},{"name":"Cineworld Northampton","city":"Northampton NN5 5QJ","country":"United Kingdom","chain":"Cineworld","category":"Large Chain","lat":52.2367661,"lng":-0.9366537,"address":"Sixfields Leisure, Northampton NN5 5QJ, UK"},{"name":"Cineworld Nottingham","city":"Nottingham NG1 4AA","country":"United Kingdom","chain":"Cineworld","category":"Large Chain","lat":52.9559247,"lng":-1.1501458,"address":"The Cornerhouse, Nottingham NG1 4AA, UK","notes":"Returned as Vue - Cineworld may have rebranded here"},{"name":"Cineworld Plymouth","city":"Plymouth","country":"United Kingdom","chain":"Cineworld","category":"Large Chain","lat":50.3707633,"lng":-4.1369071,"address":"Unit 17, 11 Bretonside, Plymouth PL4 0FE, UK","placeId":"ChIJkZh86A3tbEgRP72D5FaeFbo"},{"name":"Cineworld Poole","city":"Poole BH12 4NY","country":"United Kingdom","chain":"Cineworld","category":"Large Chain","lat":50.7457576,"lng":-1.9523064,"address":"Tower Retail Park, Poole BH12 4NY, UK"},{"name":"Cineworld Rochester","city":"Rochester","country":"United Kingdom","chain":"Cineworld","category":"Large Chain","lat":51.379595,"lng":0.47482,"address":"Medway Valley Lesiure Park, Chariot Way, Rochester ME2 2SS, UK","placeId":"ChIJEZnLjoTM2EcR4_9dwm8j5EM"},{"name":"Cineworld Rugby","city":"Rugby","country":"United Kingdom","chain":"Cineworld","category":"Large Chain","lat":52.3854087,"lng":-1.2566464,"address":"Junction One, Leicester Rd, Rugby CV21 1RW, UK","placeId":"ChIJhyUN4MRAd0gR8RdyUeP1L2Q"},{"name":"Cineworld Rushden Lakes","city":"Rushden","country":"United Kingdom","chain":"Cineworld","category":"Large Chain","lat":52.3004662,"lng":-0.628576,"address":"Unit 16 Northampton Rd, Rushden NN10 6FA, UK","placeId":"ChIJz_8hLQqjd0gRp2mUghmzlHo"},{"name":"Cineworld Sheffield","city":"Sheffield","country":"United Kingdom","chain":"Cineworld","category":"Large Chain","lat":53.4025923,"lng":-1.4139184,"address":"Valley Centertainment, Broughton Ln, Sheffield S9 2EP, UK","placeId":"ChIJJ96Kj_J3eUgRszFR0wuQ-PI"},{"name":"Cineworld Shrewsbury","city":"Shrewsbury","country":"United Kingdom","chain":"Cineworld","category":"Large Chain","lat":52.7030761,"lng":-2.7393729,"address":"Old Potts Way, Shrewsbury SY3 7ET, UK","placeId":"ChIJ__Jja2ieekgRUA37ED9tCLA"},{"name":"Cineworld Solihull","city":"Solihull","country":"United Kingdom","chain":"Cineworld","category":"Large Chain","lat":52.4119125,"lng":-1.7789165,"address":"47 Homer Rd, Solihull B91 3QW, UK","placeId":"ChIJA0V2huC5cEgRMA0TadLjXI8"},{"name":"Cineworld South Ruislip","city":"South Ruislip","country":"United Kingdom","chain":"Cineworld","category":"Large Chain","lat":51.5593167,"lng":-0.4004024,"address":"The Old Dairy, Victoria Rd, Ruislip HA4 0EW, UK","placeId":"ChIJ52Vazt9sdkgRildkNJ8USBg"},{"name":"Cineworld Speke","city":"Speke","country":"United Kingdom","chain":"Cineworld","category":"Large Chain","lat":53.3493585,"lng":-2.8804135,"address":"Speke Rd, New Mersey Retail Pk Roundabout, Speke, Liverpool L24 8QB, UK","placeId":"ChIJ_6XNVLche0gRmy6BRoPUo4U"},{"name":"Cineworld St Helens","city":"St Helens","country":"United Kingdom","chain":"Cineworld","category":"Large Chain","lat":53.4515395,"lng":-2.7410238,"address":"Chalon Way W, St Helens, Saint Helens WA10 1BF, UK","placeId":"ChIJVSBBKYIbe0gR-fADEHPgSDw"},{"name":"Cineworld St Neots","city":"St Neots","country":"United Kingdom","chain":"Cineworld","category":"Large Chain","lat":52.2288997,"lng":-0.2642599,"address":"The Rowley Arts Centre, Huntingdon St, St Neots, St. Neots PE19 1BH, UK","placeId":"ChIJFWAF6bXFd0gRRDU3Q0bGF9g"},{"name":"Cineworld Stevenage","city":"Stevenage","country":"United Kingdom","chain":"Cineworld","category":"Large Chain","lat":51.9001949,"lng":-0.2097632,"address":"Stevenage Leisure Park, Kings Way, Stevenage SG1 2UA, UK","placeId":"ChIJbfElVckxdkgRZH2A-SLg9dM"},{"name":"Cineworld Stoke on Trent","city":"Stoke-on-Trent","country":"United Kingdom","chain":"Cineworld","category":"Large Chain","lat":53.0292159,"lng":-2.1765591,"address":"City Centre, Quadrant Rd, Hanley, Stoke-on-Trent ST1 1PS, UK","placeId":"ChIJNcB6YYBCekgRj3JQ4ZgLSP0"},{"name":"Cineworld Swindon","city":"Swindon SN5 7DN","country":"United Kingdom","chain":"Cineworld","category":"Large Chain","lat":51.561712,"lng":-1.831655,"address":"Shaw Ridge Leisure Park, Swindon SN5 7DN, UK"},{"name":"Cineworld Swindon Shaw Ridge","city":"Swindon","country":"United Kingdom","chain":"Cineworld","category":"Large Chain","lat":51.560712,"lng":-1.831655,"address":"Shaw Ridge Leisure Park, Whitehill Way, Swindon SN5 7DN, UK","placeId":"ChIJu9VbeJJDcUgRJT1-WxML5Qk"},{"name":"Cineworld Telford","city":"Telford","country":"United Kingdom","chain":"Cineworld","category":"Large Chain","lat":52.6737892,"lng":-2.4482886,"address":"Southwater Square, Telford TF3 4HS, UK","placeId":"ChIJJTD07YZ_cEgR4ivprf8TR6E"},{"name":"Cineworld Wakefield","city":"Wakefield","country":"United Kingdom","chain":"Cineworld","category":"Large Chain","lat":53.6770496,"lng":-1.5058062,"address":"Westgate Retail & Lesuire Westgate Retail & Leisure Park, Colinsway, Wakefield WF2 9SH, UK","placeId":"ChIJ595WyORmeUgRHYpwxbUZZwU"},{"name":"Cineworld Wandsworth","city":"Wandsworth","country":"United Kingdom","chain":"Cineworld","category":"Large Chain","lat":51.4539378,"lng":-0.1933645,"address":"Wandsworth High St, London SW18 4TF, UK","placeId":"ChIJb9rJqmYPdkgR4lHkRulOWrI"},{"name":"Cineworld Warrington","city":"Warrington","country":"United Kingdom","chain":"Cineworld","category":"Large Chain","lat":53.3883679,"lng":-2.5911644,"address":"Time Square Unit 8, Warrington WA1 2LH, UK","placeId":"ChIJGVn-DzwCe0gRp2i9-uO0j58"},{"name":"Cineworld Watford","city":"Watford","country":"United Kingdom","chain":"Cineworld","category":"Large Chain","lat":51.656065,"lng":-0.3964278,"address":"Charter Pl, Watford WD17 2DJ, UK","placeId":"ChIJG0BN4PdrdkgRsFEqc0Da9Tc"},{"name":"Cineworld Wembley","city":"Wembley","country":"United Kingdom","chain":"Cineworld","category":"Large Chain","lat":51.5568719,"lng":-0.2834149,"address":"Wembley Park Blvd, Wembley Park, Wembley HA9 0RX, UK","placeId":"ChIJXYL5sSoSdkgRzdqGhoi4h9g"},{"name":"Cineworld West India Quay","city":"West India Quay","country":"United Kingdom","chain":"Cineworld","category":"Large Chain","lat":51.5078639,"lng":-0.022363,"address":"West India Quay, Hertsmere Rd, London E14 4AL, UK","placeId":"ChIJITdUsMcCdkgREaY2Svc0RJ8"},{"name":"Cineworld Weston Super Mare","city":"Weston Super Mare","country":"United Kingdom","chain":"Cineworld","category":"Large Chain","lat":51.3455909,"lng":-2.9786108,"address":"Dolphin Square, 7 Central Walk, Weston-super-Mare BS23 1FF, UK","placeId":"ChIJQWr5Y9P4cUgRBUps54o3azY"},{"name":"Cineworld Whiteley","city":"Whiteley","country":"United Kingdom","chain":"Cineworld","category":"Large Chain","lat":50.886198,"lng":-1.2481961,"address":"Whiteley Shopping Centre, Whiteley Wy, Whiteley, Fareham PO15 7PD, UK","placeId":"ChIJudKeI09EcUgR6IEk13O6QQM"},{"name":"Cineworld Witney","city":"Witney","country":"United Kingdom","chain":"Cineworld","category":"Large Chain","lat":51.7880296,"lng":-1.4861584,"address":"Unit L3, Marriotts Walk, Witney OX28 6GW, UK","placeId":"ChIJveuaZVnMdkgR66Bj9fGANLY"},{"name":"Cineworld Wolverhampton","city":"Wolverhampton","country":"United Kingdom","chain":"Cineworld","category":"Large Chain","lat":52.5962451,"lng":-2.0928794,"address":"Bentley Bridge, Wednesfield Wy, Park, Wolverhampton WV11 1TZ, UK","placeId":"ChIJK3TutP-bcEgR5CnbgOoVWBk"},{"name":"Cineworld Wood Green","city":"Wood Green","country":"United Kingdom","chain":"Cineworld","category":"Large Chain","lat":51.5943418,"lng":-0.1076152,"address":"169 High Rd, London N22 6YA, UK","placeId":"ChIJKUxwkP0bdkgRR7Ky_2MS6jE"},{"name":"Cineworld Yeovil","city":"Yeovil","country":"United Kingdom","chain":"Cineworld","category":"Large Chain","lat":50.9405446,"lng":-2.6250052,"address":"Yeo Leisure Park, Old Station Way, Yeovil BA20 1NP, UK","placeId":"ChIJYzKrOctBckgR7QrBWJVhTvU"},{"name":"Cineworld York","city":"York","country":"United Kingdom","chain":"Cineworld","category":"Large Chain","lat":53.9835033,"lng":-1.0525649,"address":"Community Stadium, Kathryn Ave, Huntington, York YO32 9AF, UK","placeId":"ChIJayjM7_AxeUgRE31W1ADxxaE"},{"name":"Curzon Aldgate","city":"London","country":"United Kingdom","chain":"Curzon","category":"Small Chain","lat":51.5137742,"lng":-0.0690075,"address":"2 Canter Wy, London E1 8PS, UK","placeId":"ChIJzfP8QzUDdkgRztMWXSgRves"},{"name":"Curzon Arthouse Crouch End","city":"London","country":"United Kingdom","chain":"Curzon","category":"Small Chain","lat":51.5818634,"lng":-0.12003,"address":"159A Tottenham Ln, London N8 9BT, UK","placeId":"ChIJESKOosEbdkgRwqRUxCUwp4o","notes":"Returned as: ArtHouse Crouch End"},{"name":"Curzon Bloomsbury","city":"London","country":"United Kingdom","chain":"Curzon","category":"Small Chain","lat":51.5241103,"lng":-0.1231058,"address":"The Brunswick Centre, London WC1N 1AW, UK","placeId":"ChIJxePkNjcbdkgRiaZ0HLGdLAI"},{"name":"Curzon Camden","city":"London","country":"United Kingdom","chain":"Curzon","category":"Small Chain","lat":51.5422499,"lng":-0.143483,"address":"Arches N7 - N14, Dockray Pl, London NW1 8QD, UK","placeId":"ChIJHU9qcfYbdkgRMWRi2tSEWlU"},{"name":"Curzon Canterbury Riverside","city":"Canterbury","country":"United Kingdom","chain":"Curzon","category":"Small Chain","lat":51.2850548,"lng":1.0869161,"address":"The Riverside, Kingsmead Rd, Canterbury CT1 1BN, UK","placeId":"ChIJYziZDDvL3kcRMYatObt7WZk"},{"name":"Curzon Canterbury Westgate","city":"Canterbury","country":"United Kingdom","chain":"Curzon","category":"Small Chain","lat":51.2815487,"lng":1.0773574,"address":"Westgate Hall Rd, Canterbury CT1 2BT, UK","placeId":"ChIJ9T6KLbTL3kcRRXfn-yM1AX4"},{"name":"Curzon Colchester","city":"Colchester","country":"United Kingdom","chain":"Curzon","category":"Small Chain","lat":51.8891731,"lng":0.9044321,"address":"Roman House, 19 Queen St, Colchester CO1 2PH, UK","placeId":"ChIJuYYM6eAF2UcRe0tB07j0fis"},{"name":"Curzon Community Clevedon","city":"Clevedon","country":"United Kingdom","chain":"Curzon","category":"Small Chain","lat":51.4358298,"lng":-2.8552651,"address":"46 Old Church Rd, Clevedon BS21 6NN, UK","placeId":"ChIJ4_FHn_fwcUgRq2Ndb5zT1KU"},{"name":"Curzon Filmhouse Richmond","city":"Richmond","country":"United Kingdom","chain":"Curzon","category":"Small Chain","lat":51.4592363,"lng":-0.3070304,"address":"3 Water Ln, Richmond TW9 1TJ, UK","placeId":"ChIJDeGlH2IMdkgRgNY8wJ-NeTM"},{"name":"Curzon Hoxton","city":"London","country":"United Kingdom","chain":"Curzon","category":"Small Chain","lat":51.5288916,"lng":-0.0837518,"address":"55 Pitfield St, London N1 6BU, UK","placeId":"ChIJ0U066KQcdkgRaxIgOmM2ZtU"},{"name":"Curzon Kingston","city":"Kingston upon Thames","country":"United Kingdom","chain":"Curzon","category":"Small Chain","lat":51.4111671,"lng":-0.3045794,"address":"The Bentall Centre, Unit 59B Wood St, Kingston upon Thames KT1 1TP, UK","placeId":"ChIJ7eiT0uoLdkgR0yJ8rP39uuQ"},{"name":"Curzon Knutsford studio","city":"Knutsford, Cheshire","country":"United Kingdom","chain":"Curzon","category":"Small Chain","lat":53.3019731,"lng":-2.3727614,"address":"3 Toft Rd, Knutsford WA16 0PE, UK","placeId":"ChIJ-bonhKZVekgR54KKO62sjAY"},{"name":"Curzon Mayfair","city":"London","country":"United Kingdom","chain":"Curzon","category":"Small Chain","lat":51.5065673,"lng":-0.1479457,"address":"38 Curzon St, London W1J 7TY, UK","placeId":"ChIJlXAEIy8FdkgR1qaSOxyAsfc"},{"name":"Curzon Oxford","city":"Oxford","country":"United Kingdom","chain":"Curzon","category":"Small Chain","lat":51.7494256,"lng":-1.2619729,"address":"Westgate Shopping Centre, Oxford OX1 1NZ, UK","placeId":"ChIJhdyOGLvGdkgRwtWf6iwlIJ0"},{"name":"Curzon Sheffield","city":"Sheffield","country":"United Kingdom","chain":"Curzon","category":"Small Chain","lat":53.3823135,"lng":-1.4672253,"address":"16 George St, Sheffield City Centre, Sheffield S1 2PF, UK","placeId":"ChIJuQ_Ch3h4eUgRMEFyhB7StPg"},{"name":"Curzon Soho","city":"London","country":"United Kingdom","chain":"Curzon","category":"Small Chain","lat":51.5127004,"lng":-0.1305849,"address":"99 Shaftesbury Ave, London W1D 5DY, UK","placeId":"ChIJR_tP9tIEdkgR50LK64QCsck"},{"name":"Curzon Victoria","city":"London","country":"United Kingdom","chain":"Curzon","category":"Small Chain","lat":51.4974876,"lng":-0.1368256,"address":"58 Victoria St, London SW1E 6QW, UK","placeId":"ChIJm73q7d4EdkgRFNtwvH-wdJs"},{"name":"Curzon Wimbledon HMV","city":"Wimbledon","country":"United Kingdom","chain":"Curzon","category":"Small Chain","lat":51.4203381,"lng":-0.2055456,"address":"Second Floor, 23 The Broadway, London SW19 1RE, UK","placeId":"ChIJU0KaVbcIdkgRw1Y5wo0pmqw"},{"name":"Eclipse Cinema Bundoran","city":"Bundoran","country":"Ireland","chain":"Eclipse","category":"Small Chain","lat":54.4778999,"lng":-8.2741632,"address":"Station Rd, Drumacrin, Bundoran, Co. Donegal, F94 C973, Ireland","placeId":"ChIJdelqDQ39XkgRtxlNFJuG6-Y"},{"name":"Eclipse Lifford Strabane Donegal","city":"Lifford","country":"Ireland","chain":"Eclipse","category":"Small Chain","lat":54.8339429,"lng":-7.4769527,"address":"Three Rivers Centre, 3 Station Rd, Lifford, Co. Donegal, F93 NX99, Ireland","placeId":"ChIJrXFnELYBYEgRq8iSGkHlbPI"},{"name":"Everyman Altrincham","city":"Altrincham","country":"United Kingdom","chain":"Everyman","category":"Small Chain","lat":53.3865366,"lng":-2.3513578,"address":"74-78 George St, Altrincham WA14 1RF, UK","placeId":"ChIJFwXSF2Wte0gRcJayA2MRwHY"},{"name":"Everyman Baker Street","city":"London","country":"United Kingdom","chain":"Everyman","category":"Small Chain","lat":51.5205192,"lng":-0.1565296,"address":"96-98 Baker St, London W1U 6TJ, UK","placeId":"ChIJJXNfoY4NdEgR5o9cDBrw_ro"},{"name":"Everyman Barnet","city":"Barnet","country":"United Kingdom","chain":"Everyman","category":"Small Chain","lat":51.6464099,"lng":-0.1878288,"address":"Great N Rd, New Barnet, Barnet EN5 1AB, UK","placeId":"ChIJD1FB9ykYdkgRl-V8hUv4lD0"},{"name":"Everyman Bath","city":"Bath","country":"United Kingdom","chain":"Everyman","category":"Small Chain","lat":51.3783415,"lng":-2.3583511,"address":"6-8 Dorchester St, Bath BA1 1SS, UK","placeId":"ChIJyfu0JoqBcUgRSmWQFUxj5XY"},{"name":"Everyman Belsize Park","city":"London","country":"United Kingdom","chain":"Everyman","category":"Small Chain","lat":51.5507749,"lng":-0.1656591,"address":"203 Haverstock Hill, Belsize Park, London NW3 4QG, UK","placeId":"ChIJOSQX9ZAadkgRH63hPaxSSsg"},{"name":"Everyman Birmingham Mailbox","city":"WestMidlands","country":"United Kingdom","chain":"Everyman","category":"Small Chain","lat":52.4761282,"lng":-1.9051583,"address":"The Mailbox, 116 Commercial St, Wharfside St, Birmingham B1 1RF, UK","placeId":"ChIJ3eTIHYu8cEgRmSujRVLCufo"},{"name":"Everyman Borough Yards","city":"London","country":"United Kingdom","chain":"Everyman","category":"Small Chain","lat":51.5055291,"lng":-0.0922331,"address":"3 Dirty Ln, London SE1 9PA, UK","placeId":"ChIJxRcXx8EDdkgREZjSNbsDocM"},{"name":"Everyman Brentford","city":"Brentford","country":"United Kingdom","chain":"Everyman","category":"Small Chain","lat":51.4829406,"lng":-0.307685,"address":"5 E Bradbury Yard, Brentford TW8 8GB, UK","placeId":"ChIJuT7RIwANdkgRug7EUfamKMQ"},{"name":"Everyman Bristol","city":"Bristol","country":"United Kingdom","chain":"Everyman","category":"Small Chain","lat":51.4630966,"lng":-2.6092978,"address":"44 Whiteladies Rd, Redland, Bristol BS8 2NH, UK","placeId":"ChIJCbqGzcKNcUgR1ly6DpknyYk"},{"name":"Everyman Broadgate","city":"London","country":"United Kingdom","chain":"Everyman","category":"Small Chain","lat":51.51941,"lng":-0.08523,"address":"1 Finsbury Ave, London EC2M 2PF, UK","placeId":"ChIJbz3yMIwddkgRLX3_vzqK8w8"},{"name":"Everyman Bury St Edmunds","city":"Bury St Edmunds","country":"United Kingdom","chain":"Everyman","category":"Small Chain","lat":52.2455046,"lng":0.7091713,"address":"King's Rd, Bury St Edmunds, Bury Saint Edmunds IP33 3DG, UK","placeId":"ChIJmWP3IM1N2EcRrSrrYOBwiSw"},{"name":"Everyman Cambridge","city":"Cambridge","country":"United Kingdom","chain":"Everyman","category":"Small Chain","lat":52.2042259,"lng":0.1208245,"address":"Grand Arcade, St Andrew's St, Cambridge CB2 3BJ, UK","placeId":"ChIJu16Gfslx2EcRqKyRInOQggs"},{"name":"Everyman Canary Wharf","city":"London","country":"United Kingdom","chain":"Everyman","category":"Small Chain","lat":51.5062028,"lng":-0.0177658,"address":"Level -2, Upper Bank St, Crossrail Pl, Canary Wharf Estate, London E14 5AR, UK","placeId":"ChIJ280AOrcCdkgRluiLKM1oBoo"},{"name":"Everyman Cardiff","city":"Cardiff","country":"United Kingdom","chain":"Everyman","category":"Small Chain","lat":51.4633954,"lng":-3.1646851,"address":"Mermaid Quay, Cardiff CF10 5BZ, UK","placeId":"ChIJmV1DUZADbkgREreKmpurAlI"},{"name":"Everyman Chelmsford","city":"Chelmsford","country":"United Kingdom","chain":"Everyman","category":"Small Chain","lat":51.7340009,"lng":0.4758483,"address":"131 Bond St, Chelmsford CM1 1GD, UK","placeId":"ChIJFwW0UH3p2EcRAg6_Pzog10Y"},{"name":"Everyman Chelsea","city":"London","country":"United Kingdom","chain":"Everyman","category":"Small Chain","lat":51.4855354,"lng":-0.1733363,"address":"279 King's Rd, London SW3 5EW, UK","placeId":"ChIJeWPZhKUFdkgRXJizHA1C8_M"},{"name":"Everyman Cheltenham","city":"Cheltenham","country":"United Kingdom","chain":"Everyman","category":"Small Chain","lat":51.8997333,"lng":-2.0750667,"address":"7, Everyman Theatre, 10 Regent St, Cheltenham GL50 1HQ, UK","placeId":"ChIJhzQmvZcbcUgR5H7xaB239Sc"},{"name":"Everyman Clitheroe","city":"Clitheroe","country":"United Kingdom","chain":"Everyman","category":"Small Chain","lat":53.8680105,"lng":-2.3943665,"address":"Holmes Mill, Greenacre St, Clitheroe BB7 1EB, UK","placeId":"ChIJCeE2nOabe0gROJW5rz4KE74"},{"name":"Everyman Crystal Palace","city":"London","country":"United Kingdom","chain":"Everyman","category":"Small Chain","lat":51.4191002,"lng":-0.0790857,"address":"25 Church Rd, London SE19 2TE, UK","placeId":"ChIJz_IUYT8BdkgRIv6mpfuxyjY"},{"name":"Everyman Edinburgh","city":"Edinburgh","country":"United Kingdom","chain":"Everyman","category":"Small Chain","lat":55.9550296,"lng":-3.1881866,"address":"St James Cres, Edinburgh EH1 3AD, UK","placeId":"ChIJqUc703XHh0gREth1x0KBhvY"},{"name":"Everyman Egham","city":"Egham","country":"United Kingdom","chain":"Everyman","category":"Small Chain","lat":51.4309579,"lng":-0.5479176,"address":"Gem House, Station Road House, Church Rd, Egham TW20 9FG, UK","placeId":"ChIJzy5_j9BxdkgRv3ua5vSLToU"},{"name":"Everyman Esher","city":"Esher","country":"United Kingdom","chain":"Everyman","category":"Small Chain","lat":51.3708354,"lng":-0.3640304,"address":"22 High St, Esher KT10 9RT, UK","placeId":"ChIJQaYikMgKdkgREYgwn4M8ABw"},{"name":"Everyman Gerrards Cross","city":"Gerrards Cross","country":"United Kingdom","chain":"Everyman","category":"Small Chain","lat":51.5889267,"lng":-0.5532197,"address":"Ethorpe Cres, Gerrards Cross SL9 8PN, UK","placeId":"ChIJ1xQ7oU9vdkgRYE8YtuieCBc"},{"name":"Everyman Glasgow","city":"Glasgow","country":"United Kingdom","chain":"Everyman","category":"Small Chain","lat":55.8592271,"lng":-4.2537088,"address":"Unit 3 - 5, Princes square, Buchanan St, Glasgow G1 3JN, UK","placeId":"ChIJM0KxRT9HiEgR9MfSI2V0mmQ"},{"name":"Everyman Hampstead","city":"Hampstead","country":"United Kingdom","chain":"Everyman","category":"Small Chain","lat":51.5564587,"lng":-0.1790612,"address":"5 Holly Bush Vale, London NW3 6TX, UK","placeId":"ChIJ47yhuYwadkgRkihmSUdmXQY"},{"name":"Everyman Harrogate","city":"Harrogate","country":"United Kingdom","chain":"Everyman","category":"Small Chain","lat":53.9917668,"lng":-1.5378482,"address":"Westgate House, Albert St, Station Parade, Harrogate HG1 1HQ, UK","placeId":"ChIJM2sd6-BTeUgRWm5eIHCzXbE"},{"name":"Everyman Horsham","city":"Horsham","country":"United Kingdom","chain":"Everyman","category":"Small Chain","lat":51.0626095,"lng":-0.3264461,"address":"16 Piries Place, Horsham RH12 1EH, UK","placeId":"ChIJbYE0Hp_rdUgRr_s-nnetIkE"},{"name":"Everyman Islington","city":"London","country":"United Kingdom","chain":"Everyman","category":"Small Chain","lat":51.5368743,"lng":-0.1036783,"address":"83 Upper St, London N1 0NP, UK","placeId":"ChIJgbmuj2cbdkgRfYOHSIlkrKg"},{"name":"Everyman Kings Cross","city":"London","country":"United Kingdom","chain":"Everyman","category":"Small Chain","lat":51.5373857,"lng":-0.1241383,"address":"14-18 Handyside St, London N1C 4DN, UK","placeId":"ChIJj2COchYbdkgRVmLTn2uEOhc"},{"name":"Everyman Leeds","city":"Leeds","country":"United Kingdom","chain":"Everyman","category":"Small Chain","lat":53.7966676,"lng":-1.5440103,"address":"Level 4, Trinity, Albion St, Leeds LS1 5AY, UK","placeId":"ChIJExd3RRlceUgRtT1T2MIhoyk"},{"name":"Everyman Lincoln","city":"Lincoln","country":"United Kingdom","chain":"Everyman","category":"Small Chain","lat":53.2272146,"lng":-0.5389839,"address":"Exchange Square, Unit 6 Sincil St, Lincoln LN5 7ET, UK","placeId":"ChIJTz_ryepbeEgRTi5fNOAWn0Q"},{"name":"Everyman Liverpool","city":"Liverpool","country":"United Kingdom","chain":"Everyman","category":"Small Chain","lat":53.4069433,"lng":-2.9858777,"address":"35 Whitechapel, Liverpool L1 6DA, UK","placeId":"ChIJ46P6vfkhe0gR5wntHhlQY8w"},{"name":"Everyman Maida Vale","city":"Maida Vale","country":"United Kingdom","chain":"Everyman","category":"Small Chain","lat":51.5280507,"lng":-0.1817177,"address":"215 Sutherland Ave, London W9 1RU, UK","placeId":"ChIJrU2Z1KUadkgRqFMP9XqZlFU"},{"name":"Everyman Manchester","city":"Manchester","country":"United Kingdom","chain":"Everyman","category":"Small Chain","lat":53.4786976,"lng":-2.2523947,"address":"21-23 Quay St, Manchester M3 4AS, UK","placeId":"ChIJgyX_xQuxe0gRcJP8eqS-ebs"},{"name":"Everyman Marlow","city":"Marlow","country":"United Kingdom","chain":"Everyman","category":"Small Chain","lat":51.57194,"lng":-0.7771874,"address":"1 Market Square, Marlow SL7 1BE, UK","placeId":"ChIJNRLNPVaJdkgRANfsUVsiniw"},{"name":"Everyman Muswell Hill","city":"London","country":"United Kingdom","chain":"Everyman","category":"Small Chain","lat":51.5896477,"lng":-0.1459137,"address":"Fortis Green Rd, Muswell Hill, London N10 3HP, UK","placeId":"ChIJYRKJ2C0adkgRKmANnrItkBg"},{"name":"Everyman Newcastle","city":"Newcastle upon Tyne","country":"United Kingdom","chain":"Everyman","category":"Small Chain","lat":54.972728,"lng":-1.6126027,"address":"75-85 Grey St, Newcastle upon Tyne NE1 6EF, UK","placeId":"ChIJbeV42bVxfkgRrOD9PovpWgc"},{"name":"Everyman Northallerton","city":"Northallerton","country":"United Kingdom","chain":"Everyman","category":"Small Chain","lat":54.339154,"lng":-1.4315132,"address":"Treadmills, East Rd, Northallerton DL6 1NW, UK","placeId":"ChIJA1hwdoK8fkgRcEWZ5juV-so"},{"name":"Everyman Oxted","city":"Oxted","country":"United Kingdom","chain":"Everyman","category":"Small Chain","lat":51.2574183,"lng":-0.0062551,"address":"7 Station Rd W, Oxted RH8 9EE, UK","placeId":"ChIJ47yhuYwadkgRadZ2Ep5sdW8"},{"name":"Everyman Plymouth","city":"Plymouth","country":"United Kingdom","chain":"Everyman","category":"Small Chain","lat":50.3616345,"lng":-4.1647986,"address":"Royal William Yard, Stonehouse, Plymouth PL1 3RP, UK","placeId":"ChIJeZTMVNaTbEgR8SScO2_ndcA"},{"name":"Everyman Reigate Bancroft","city":"Reigate","country":"United Kingdom","chain":"Everyman","category":"Small Chain","lat":51.2368322,"lng":-0.2042636,"address":"Bancroft Rd, Reigate RH2 7RP, UK","placeId":"ChIJJXNfoY4NdEgRgcNXI1MKrRU"},{"name":"Everyman Salisbury","city":"Salisbury","country":"United Kingdom","chain":"Everyman","category":"Small Chain","lat":51.070641,"lng":-1.7949264,"address":"17 Endless St, Salisbury SP1 1DP, UK","placeId":"ChIJz3PG1azrc0gRv5vj2LObLzc"},{"name":"Everyman Stratford International","city":"London","country":"United Kingdom","chain":"Everyman","category":"Small Chain","lat":51.5426044,"lng":-0.0106596,"address":"4 Redman Pl, Stratford Cross, London E20 1JQ, UK","placeId":"ChIJn-DLrnsddkgRzv6V88vb248"},{"name":"Everyman Stratford-upon-Avon","city":"Stratford-upon-Avon","country":"United Kingdom","chain":"Everyman","category":"Small Chain","lat":52.1924033,"lng":-1.7079,"address":"Bell Ct, Wood St, Stratford-upon-Avon CV37 6LP, UK","placeId":"ChIJt7i0rzPOcEgRfsfRl8JqW6o"},{"name":"Everyman Walton","city":"Surrey","country":"United Kingdom","chain":"Everyman","category":"Small Chain","lat":51.3838997,"lng":-0.4166914,"address":"85-89 High St, Walton-on-Thames KT12 1DN, UK","placeId":"ChIJJXNfoY4NdEgRVNJiIw4tmgg"},{"name":"Everyman Winchester","city":"Winchester","country":"United Kingdom","chain":"Everyman","category":"Small Chain","lat":51.0606215,"lng":-1.3186651,"address":"Southgate St, Winchester SO23 9EH, UK","placeId":"ChIJg6p-mo4NdEgR14PA5ZvY0MA"},{"name":"Everyman Wokingham","city":"Wokingham","country":"United Kingdom","chain":"Everyman","category":"Small Chain","lat":51.4093197,"lng":-0.8368641,"address":"5 Elms Rd, Wokingham RG40 2NL, UK","placeId":"ChIJXWSRDseBdkgR1HbWP-rynMM"},{"name":"Everyman York","city":"York","country":"United Kingdom","chain":"Everyman","category":"Small Chain","lat":53.9548888,"lng":-1.0931157,"address":"Blossom St, York YO24 1AJ, UK","placeId":"ChIJB8ltswYxeUgRZIWJV_9rQDE"},{"name":"IMC Athlone","city":"Athlone","country":"Ireland","chain":"IMC","category":"Small Chain","lat":53.4204343,"lng":-7.9328454,"address":"Shopping Centre, Golden Island, Golden Island (Kilmaine), Athlone, Co. Westmeath, N37 W611, Ireland","placeId":"ChIJxWMT1wRJXEgR1h_D6mLKzdI"},{"name":"IMC Ballina","city":"Mayo","country":"Ireland","chain":"IMC","category":"Small Chain","lat":54.1158333,"lng":-9.1636111,"address":"Mercy Rd, Ballina, Co. Mayo, Ireland","placeId":"ChIJecJFL483WUgRQyOfogBd-oY"},{"name":"IMC Ballymena","city":"Ballymena","country":"United Kingdom","chain":"IMC","category":"Small Chain","lat":54.861564,"lng":-6.267581,"address":"30 Larne Rd Link, Ballymena BT42 3GA, UK","placeId":"ChIJcyRwjjOzYUgRTTXWS6sUBE4"},{"name":"IMC Carlow","city":"Carlow","country":"Ireland","chain":"IMC","category":"Small Chain","lat":52.8332362,"lng":-6.9237202,"address":"Fairgreen Shopping Centre, Barrack St, Carlow, Ireland","placeId":"ChIJzxITEFJdXUgRE0Qai4bd0Jo"},{"name":"IMC Clonmel","city":"Clonmel","country":"Ireland","chain":"IMC","category":"Small Chain","lat":52.3550396,"lng":-7.7017285,"address":"Kickham St, Burgagery-Lands West, Clonmel, Co. Tipperary, Ireland","placeId":"ChIJrcJ-L-MxQ0gRoRuU1J5hoxs"},{"name":"IMC Dun Laoghaire","city":"Dun Laoghaire","country":"Ireland","chain":"IMC","category":"Small Chain","lat":53.2933007,"lng":-6.1394413,"address":"Bloomfields Shopping Centre, George's Street Lower, D\u00fan Laoghaire, Dublin, A96 F9V2, Ireland","placeId":"ChIJZRQ0TyEGZ0gRfLH7-ErGS4w"},{"name":"IMC Dundalk","city":"Dundalk","country":"Ireland","chain":"IMC","category":"Small Chain","lat":54.0076585,"lng":-6.403774,"address":"Carroll's Village, The Long Walk, Townparks, Dundalk, Co. Louth, A91 AC9X, Ireland","placeId":"ChIJBYPxL6TOYEgRNLTAiQFand0"},{"name":"IMC Enniskillen","city":"Enniskillen","country":"United Kingdom","chain":"IMC","category":"Small Chain","lat":54.3522626,"lng":-7.6334002,"address":"Raceview House, Factory Rd, Enniskillen BT74 6DP, UK","placeId":"ChIJcyR5MjFGXkgRu5KmA048JH0"},{"name":"IMC Galway","city":"Galway","country":"Ireland","chain":"IMC","category":"Small Chain","lat":53.2796514,"lng":-9.0507588,"address":"Galway Retail Park, Headford Rd, Galway, H91 E799, Ireland","placeId":"ChIJWelVJeyWW0gRxV0j7uL45l4"},{"name":"IMC Kilkenny Roachpond","city":"Kilkenny","country":"Ireland","chain":"IMC","category":"Small Chain","lat":52.6571412,"lng":-7.248062,"address":"Barrack St, Roachpond, Kilkenny, R95 V32T, Ireland","placeId":"ChIJfapD7SA7XUgRwZLPKWLluC0"},{"name":"IMC Killarney","city":"Killarney","country":"Ireland","chain":"IMC","category":"Small Chain","lat":52.0577897,"lng":-9.5064552,"address":"East Avenue Road, Killarney, Kerry, Ireland","placeId":"ChIJC7cfJQs8RUgRIvs6BgbEF0s","notes":"Returned as: CinemaKillarney"},{"name":"IMC Mullingar","city":"Mullingar","country":"Ireland","chain":"IMC","category":"Small Chain","lat":53.5329045,"lng":-7.3121995,"address":"Lakepoint Retail and Business Park, Delvin Rd, Petitswood, Mullingar, Co. Westmeath, Ireland","placeId":"ChIJz1DKmcDqXUgRsvHPm5mI3sk"},{"name":"IMC Oranmore","city":"Galway","country":"Ireland","chain":"IMC","category":"Small Chain","lat":53.2783009,"lng":-8.9277097,"address":"Carrowmoneash, Oranmore Business Park, Oranmore, Co. Galway, H91 X6RY, Ireland","placeId":"ChIJQfivm7aRW0gRZn3jBUuqabY"},{"name":"IMC Santry","city":"Dublin","country":"Ireland","chain":"IMC","category":"Small Chain","lat":53.3933238,"lng":-6.2501414,"address":"Omni Park Shopping Centre, Swords Rd, Santry, Dublin, D09 NC83, Ireland","placeId":"ChIJo0-pbSIOZ0gRoZEvecjnlsk"},{"name":"IMC Thurles","city":"Thurles","country":"Ireland","chain":"IMC","category":"Small Chain","lat":52.6760008,"lng":-7.8108927,"address":"Thurles Shopping Centre, Slievenamon Rd, Thurles Townparks, Thurles, Co. Tipperary, E41 A6P1, Ireland","placeId":"ChIJ8Wtd0MPEXEgRF4J_cl87m0c"},{"name":"IMC Tullamore","city":"Tullamore","country":"Ireland","chain":"IMC","category":"Small Chain","lat":53.2745098,"lng":-7.4947042,"address":"Unit 6 /7, Tullamore, Co. Offaly, Ireland","placeId":"ChIJoxyjB4alXUgRJhaid61ptK4"},{"name":"Abbey Cinema","city":"Abingdon","country":"United Kingdom","chain":"Independent","category":"Independent","lat":51.6701047,"lng":-1.2801584,"address":"Abbey Cl, Abingdon OX14 3JD, UK","placeId":"ChIJDwqbpsy5dkgRN5j1gAkO8B4"},{"name":"Abbeygate","city":"Bury St Edmunds","country":"United Kingdom","chain":"Independent","category":"Independent","lat":52.244285,"lng":0.714418,"address":"4 Hatter St, Bury St Edmunds, Bury Saint Edmunds IP33 1LZ, UK","placeId":"ChIJF6IRI0VM2EcRq2doZO-V78M"},{"name":"Act One Cinema","city":"London","country":"United Kingdom","chain":"Independent","category":"Independent","lat":51.506584,"lng":-0.2685768,"address":"The Old Library, 119-121 High St, London W3 6NA, UK","placeId":"ChIJRSNOU_YPdkgRFZ1DGMuDHzE"},{"name":"Alhambra Keswick","city":"Keswick","country":"United Kingdom","chain":"Independent","category":"Independent","lat":54.599628,"lng":-3.135266,"address":"36 St John's St, Keswick CA12 5AG, UK","placeId":"ChIJW_zjXGLbfEgRwYgsTcMhURg"},{"name":"An Lanntair","city":"Stornoway","country":"United Kingdom","chain":"Independent","category":"Independent","lat":58.2080556,"lng":-6.3872222,"address":"Kenneth St, Stornoway HS1 2DS, UK","placeId":"ChIJnfpnddX3jUgRk10zRDi6hD4"},{"name":"Arts Aberystwyth","city":"Aberystwyth","country":"United Kingdom","chain":"Independent","category":"Independent","lat":52.4158333,"lng":-4.0627778,"address":"Aberystwyth University, Penglais Campus, Aberystwyth SY23 3DE, UK","placeId":"ChIJRxUDnzd2b0gR0CB0_zcndX8"},{"name":"Arts Stamford","city":"Stamford","country":"United Kingdom","chain":"Independent","category":"Independent","lat":52.651702,"lng":-0.4769143,"address":"Stamford Arts Centre, 27 St Mary's St, Stamford PE9 2DL, UK","placeId":"ChIJ9VG7N86Ld0gRFx3rQN5nrjs"},{"name":"Assembly Rooms Ludlow","city":"Ludlow","country":"United Kingdom","chain":"Independent","category":"Independent","lat":52.3671401,"lng":-2.7207248,"address":"Assembly Rooms, Castle St, Ludlow SY8 1AZ, UK","placeId":"ChIJwZ1zHU5qcEgRiAZ5IO8V5KA"},{"name":"BBFC","city":"London","country":"United Kingdom","chain":"Independent","category":"Independent","lat":51.5048789,"lng":-0.1136318,"address":"1 Charlie Chaplin Walk, London SE1 8XR, UK","placeId":"ChIJm_mee7cEdkgRM0sbLsHGeWg"},{"name":"BFBS Chalfont Grove","city":"Buckinghamshire","country":"United Kingdom","chain":"Independent","category":"Independent","lat":51.6147141,"lng":-0.5713301,"address":"Chalfont Grove, Narcot Ln, Gerrards Cross, Chalfont Saint Giles SL9 8TN, UK","placeId":"ChIJ7UvifBlmdkgRnxJIFXsk-e8"},{"name":"BFBS Cinema Astra St Mawgan Cornwall","city":"Newquay","country":"United Kingdom","chain":"Independent","category":"Independent","lat":50.413683,"lng":-5.0872191,"address":"King St, Newquay TR7 1AA, UK","placeId":"ChIJ-Vr9Q80Pa0gRooEU9cpEjZM"},{"name":"BFBS Cinema Blandford Forum","city":"Blandford Forum","country":"United Kingdom","chain":"Independent","category":"Independent","lat":50.8700375,"lng":-2.1196258,"address":"Blandford Camp, Blandford Forum DT11 8BJ, UK","placeId":"ChIJsZkIyAexc0gRqnsI9CWNZzo"},{"name":"BFBS Cinema DITG Chicksands Theatre","city":"Shefford","country":"United Kingdom","chain":"Independent","category":"Independent","lat":52.0418463,"lng":-0.3588685,"address":"Wellington Dr, Chicksands, Shefford SG17 5BH, UK","placeId":"ChIJuU32G8DKd0gR7h3UYBtzfYY"},{"name":"BFBS Cinema Hall Defence Medical Rehabilitation Centre","city":"Loughborough","country":"United Kingdom","chain":"Independent","category":"Independent","lat":52.8109975,"lng":-1.1704855,"address":"Stanford on Soar, Loughborough LE12 5QW, UK","placeId":"ChIJAd2nrJfdeUgRze1iSzPbVho"},{"name":"BFBS Cinema Seahawk","city":"Helston","country":"United Kingdom","chain":"Independent","category":"Independent","lat":50.1013436,"lng":-5.2731739,"address":"17 Wendron St, Helston TR13 8PT, UK","placeId":"ChIJy0tSEYEna0gRUF92PMNdfzU"},{"name":"Backlot Cinema and Diner","city":"Blackpool","country":"United Kingdom","chain":"Independent","category":"Independent","lat":53.8163265,"lng":-3.0524575,"address":"Houndshill Shopping Centre, Blackpool FY1 4EN, UK","placeId":"ChIJByqsfwBFe0gR6emEQRbLmVw"},{"name":"Baker Street Cinema Abergavenny","city":"Abergavenny","country":"United Kingdom","chain":"Independent","category":"Independent","lat":51.8233976,"lng":-3.0206837,"address":"Baker St, Abergavenny NP7 5BB, UK","placeId":"ChIJo1Nn6K_QcUgRNWqsqvTxvWw"},{"name":"Bangor University Pontio","city":"Gwynedd","country":"United Kingdom","chain":"Independent","category":"Independent","lat":53.2275036,"lng":-4.1297027,"address":"Pontio, University, Deiniol Rd, Bangor LL57 2TQ, UK","placeId":"ChIJwU29r0sHZUgR94RxjU0y3Gc"},{"name":"Barbican","city":"London","country":"United Kingdom","chain":"Independent","category":"Independent","lat":51.5202373,"lng":-0.0927979,"address":"Silk St, London EC2Y 8DS, UK","placeId":"ChIJg_EIi6kcdkgRfG86Z_Sncsk"},{"name":"Barn Dartington","city":"Dartington Hall","country":"United Kingdom","chain":"Independent","category":"Independent","lat":50.4522423,"lng":-3.6937009,"address":"Upper Drive, Dartington Hall, Totnes TQ9 6EL, UK","placeId":"ChIJEcIZUcwcbUgR-PLhvrrxas4"},{"name":"Barn Theatre Cirencester","city":"Cirencester","country":"United Kingdom","chain":"Independent","category":"Independent","lat":51.7167345,"lng":-1.9599515,"address":"3-5 Beeches Rd, Cirencester GL7 1BN, UK","placeId":"ChIJld67Z6QVcUgRZ6MtM1sRwNE"},{"name":"Beam","city":"Hertford","country":"United Kingdom","chain":"Independent","category":"Independent","lat":51.7962647,"lng":-0.079676,"address":"The Wash, Hertford SG14 1PS, UK","placeId":"ChIJn3gYBpEmdkgReAj9Bi7pUQs"},{"name":"Beehive Honiton","city":"Honiton","country":"United Kingdom","chain":"Independent","category":"Independent","lat":50.8004489,"lng":-3.1957545,"address":"Dowell St, Honiton EX14 1LZ, UK","placeId":"ChIJ8RjfOF-FbUgRe6CKUmGuykk"},{"name":"Belltable","city":"Limerick","country":"Ireland","chain":"Independent","category":"Independent","lat":52.6596832,"lng":-8.6308879,"address":"69 O'Connell St, Prior's-Land, Limerick, V94 FK0H, Ireland","placeId":"ChIJTV7Lm2NcW0gRatPiggx-a54"},{"name":"Berwick Maltings","city":"Berwick Upon Tweed","country":"United Kingdom","chain":"Independent","category":"Independent","lat":55.7713264,"lng":-2.0000818,"address":"Parade, Berwick-upon-Tweed TD15 1DF, UK","placeId":"ChIJySAD4RNJh0gRciJwGsVx_cE"},{"name":"Bideford Cinema","city":"Bideford","country":"United Kingdom","chain":"Independent","category":"Independent","lat":51.020694,"lng":-4.2181876,"address":"Kingsley School, Edgehill Theatre, Northdown Rd, Bideford EX39 3LY, UK","placeId":"ChIJ8_tXZuI9bEgRbcc_04em8fE"},{"name":"Bonington Cinema","city":"Bonington","country":"United Kingdom","chain":"Independent","category":"Independent","lat":53.0062011,"lng":-1.1280684,"address":"High St, Arnold, Nottingham NG5 7EE, UK","placeId":"ChIJY73MIOfAeUgR5WuFI5XCyNg"},{"name":"Borth Chapel Libanus 1877 Cinema","city":"Borth","country":"United Kingdom","chain":"Independent","category":"Independent","lat":52.4877471,"lng":-4.050661,"address":"Gerlan Chapel, High St, Morfa Borth, Borth SY24 5JA, UK","placeId":"ChIJXcXsVQx4b0gRLLAmtlVi4no"},{"name":"Bradford National Media Museum","city":"Bradford","country":"United Kingdom","chain":"Independent","category":"Independent","lat":53.790698,"lng":-1.7557709,"address":"National Science and Media Museum, Pictureville, Bradford BD1 1NQ, UK","placeId":"ChIJq6pqPErhe0gRcIp0F0UreaI"},{"name":"Brewery Arts Kendal","city":"Kendal","country":"United Kingdom","chain":"Independent","category":"Independent","lat":54.3247359,"lng":-2.7482023,"address":"122A Highgate, Kendal LA9 4HE, UK","placeId":"ChIJq21GNOaNfEgRUk_PADpF2LI"},{"name":"Brewhouse Theatre","city":"Taunton","country":"United Kingdom","chain":"Independent","category":"Independent","lat":51.0182439,"lng":-3.1026379,"address":"Coal Orchard, Taunton TA1 1JL, UK","placeId":"ChIJF9C-K1f0bUgRycYvyjTDlyc"},{"name":"Bridport Electric Palace","city":"Bridport","country":"United Kingdom","chain":"Independent","category":"Independent","lat":50.7318736,"lng":-2.7579631,"address":"35 South St, Bridport DT6 3NY, UK","placeId":"ChIJz65ohHdkckgRjcHaNrahv7s"},{"name":"Broadway Cinema Isle Of Man Douglas","city":"Isle of Man","country":"United Kingdom","chain":"Independent","category":"Independent","lat":54.1571446,"lng":-4.4781674,"address":"Villa Marina, Harris Promenade, Douglas, Isle of Man IM1 2HP, Isle of Man","placeId":"ChIJ29v6KiOFY0gRllQ5ibqsEeU"},{"name":"Broadway Letchworth","city":"Letchworth Garden City","country":"United Kingdom","chain":"Independent","category":"Independent","lat":51.9772796,"lng":-0.2286676,"address":"Eastcheap, Letchworth Garden City SG6 3DD, UK","placeId":"ChIJNxiA6FcydkgRuqZhMnKJOqg"},{"name":"Broadway Nottingham","city":"Nottingham","country":"United Kingdom","chain":"Independent","category":"Independent","lat":52.9543037,"lng":-1.1437646,"address":"14-18 Broad St, Nottingham NG1 3AL, UK","placeId":"ChIJ8Q9W-tXDeUgRKqEtnWN6TAI"},{"name":"Brunswick Cinebowl","city":"Derry","country":"United Kingdom","chain":"Independent","category":"Independent","lat":55.0130621,"lng":-7.3211104,"address":"Brunswick Lane, Pennyburn Industrial Estate, Londonderry BT48 0LU, UK","placeId":"ChIJU_PX5u_hX0gRpAsEDjb-2dA"},{"name":"Brunton Theatre","city":"Musselburgh","country":"United Kingdom","chain":"Independent","category":"Independent","lat":55.9437169,"lng":-3.0570157,"address":"Ladywell Way, Musselburgh EH21 6AF, UK","placeId":"ChIJOe1z3Sq6h0gRY9TR6QQYW4s"},{"name":"Bryanston School","city":"Blandford Forum","country":"United Kingdom","chain":"Independent","category":"Independent","lat":50.865716,"lng":-2.1854763,"address":"Blandford Forum DT11 0PX, UK","placeId":"ChIJGdEpQkuyc0gRH44pzzvLboU"},{"name":"Buxton Cinema","city":"Buxton","country":"United Kingdom","chain":"Independent","category":"Independent","lat":53.2584461,"lng":-1.9167011,"address":"Water St, Buxton SK17 6XN, UK","placeId":"ChIJ9deiEjsxekgRR-ZXFogXPOw"},{"name":"CCA Glasgow","city":"Glasgow","country":"United Kingdom","chain":"Independent","category":"Independent","lat":55.8657778,"lng":-4.2650944,"address":"Centre for Contemporary Arts, 350 Sauchiehall St, Glasgow G2 3JD, UK","placeId":"ChIJWV6YRyZEiEgRRH16a7FpWc8"},{"name":"Cameron House Cinema @ INDY","city":"Alexandria","country":"United Kingdom","chain":"Independent","category":"Independent","lat":56.0134957,"lng":-4.608429,"address":"A82, Cameron House, Loch Lomond, Alexandria G83 8QZ, UK","placeId":"ChIJ8dlOCrOsiUgRP9T3FrDCM-8"},{"name":"Campbeltown","city":"Campbeltown","country":"United Kingdom","chain":"Independent","category":"Independent","lat":55.423965,"lng":-5.6030833,"address":"26 Hall St, Campbeltown PA28 6BU, UK","placeId":"ChIJ31RMWukGikgRslGcAET5V7w"},{"name":"Cannock Electric Palace Picture House","city":"Cannock","country":"United Kingdom","chain":"Independent","category":"Independent","lat":52.68769,"lng":-2.0286,"address":"12 Walsall Rd, Cannock WS11 0HE, UK","placeId":"ChIJc4rHUNyfcEgR4SdmhbXZauQ"},{"name":"Capitol Horsham","city":"Horsham","country":"United Kingdom","chain":"Independent","category":"Independent","lat":51.06437,"lng":-0.323,"address":"North St, Horsham RH12 1RG, UK","placeId":"ChIJwWMOvrLrdUgRha_0YqBBCKs"},{"name":"Carlton Pavilion","city":"Teignmouth","country":"United Kingdom","chain":"Independent","category":"Independent","lat":50.5453834,"lng":-3.4943828,"address":"Den Cres, Teignmouth TQ14 8BG, UK","placeId":"ChIJu0N4lkwJbUgR1IlOvkJQlag"},{"name":"Carlton Westgate","city":"Westgate on Sea","country":"United Kingdom","chain":"Independent","category":"Independent","lat":51.382089,"lng":1.336744,"address":"29 St. Mildreds Rd, Westgate-on-Sea CT8 8RE, UK","placeId":"ChIJR475Wn1S2UcRTGZ6Fpfehvg"},{"name":"Castle Cinema Hackney","city":"London","country":"United Kingdom","chain":"Independent","category":"Independent","lat":51.5512961,"lng":-0.0432945,"address":"First Floor, 64 - 66 Brooksby's Walk, London E9 6DA, UK","placeId":"ChIJS5lX2gMddkgRAQ_dwtvL2TQ"},{"name":"Central Cinema Fakenham","city":"Fakenham","country":"United Kingdom","chain":"Independent","category":"Independent","lat":52.8302683,"lng":0.8469548,"address":"Market Pl, Fakenham NR21 9BP, UK","placeId":"ChIJsyqFRqp510cRubQFJyx1jA0"},{"name":"Century Cinema Clacton-On-Sea","city":"Clacton","country":"United Kingdom","chain":"Independent","category":"Independent","lat":51.7919487,"lng":1.1485681,"address":"129 Pier Ave, Clacton-on-Sea CO15 1NJ, UK","placeId":"ChIJb86m7TIT2UcRKOWXh9TiJlI"},{"name":"Century Letterkenny","city":"Letterkenny","country":"Ireland","chain":"Independent","category":"Independent","lat":54.9436366,"lng":-7.7356763,"address":"Leckview Lane Pearse Road, Letterkenny, Co. Donegal, F92 DA02, Ireland","placeId":"ChIJtwFsidKUX0gRxde7DK7AOgI"},{"name":"Chalmers Alloa Cinema","city":"Alloa","country":"United Kingdom","chain":"Independent","category":"Independent","lat":56.1142088,"lng":-3.7930607,"address":"Bank St, Alloa FK10 1HP, UK","placeId":"ChIJpT7Omtl9iEgRWqTjE1-XLFo"},{"name":"Chalmers Filmhouse Arbroath","city":"Arbroath","country":"United Kingdom","chain":"Independent","category":"Independent","lat":56.5519043,"lng":-2.5977203,"address":"Queen's Dr, Arbroath DD11 1QD, UK","placeId":"ChIJNQkOqiCNhkgRcmjIASwBIEI"},{"name":"Chapter Cardiff","city":"Cardiff","country":"United Kingdom","chain":"Independent","category":"Independent","lat":51.4830255,"lng":-3.2035873,"address":"Chapter Arts Centre, Market Rd, Cardiff CF5 1QE, UK","placeId":"ChIJG88wYFobbkgRzxcsVnP2DdM"},{"name":"Charlotte Street Hotel London","city":"London","country":"United Kingdom","chain":"Independent","category":"Independent","lat":51.5184005,"lng":-0.1348734,"address":"15-17 Charlotte St., London W1T 1RJ, UK","placeId":"ChIJZWQtdiwbdkgRDtcPz5yALlU"},{"name":"Chelmsford Theatre Studio","city":"Chelmsford","country":"United Kingdom","chain":"Independent","category":"Independent","lat":51.7364423,"lng":0.465771,"address":"Fairfield Rd, Chelmsford CM1 1JG, UK","placeId":"ChIJf6bmjNrr2EcRaxA8Vt3eNCo"},{"name":"Chichester Cinema at New Park","city":"Chichester","country":"United Kingdom","chain":"Independent","category":"Independent","lat":50.8376846,"lng":-0.7732385,"address":"New Park Rd, Chichester PO19 7XY, UK","placeId":"ChIJKSm0OoNSdEgRxiFiGk6_Yyo"},{"name":"Cinebowl Uttoxeter","city":"Uttoxeter","country":"United Kingdom","chain":"Independent","category":"Independent","lat":52.8996279,"lng":-1.8576472,"address":"Town Meadows Wy., Uttoxeter ST14 8AZ, UK","placeId":"ChIJx0ODD6sRekgRDzmBFq-lHmk"},{"name":"Cinema Aldeburgh","city":"Aldeburgh","country":"United Kingdom","chain":"Independent","category":"Independent","lat":52.1540986,"lng":1.601747,"address":"51 High St, Aldeburgh IP15 5AU, UK","placeId":"ChIJo7PdhVso2kcRh-L0pbT_GlA"},{"name":"CinemaParadiso Carrick-on-Shannon","city":"Carrick-on-Shannon","country":"Ireland","chain":"Independent","category":"Independent","lat":53.9428697,"lng":-8.1044229,"address":"Sligo Road, Cortober, Carrick-On-Shannon, Co. Roscommon, N41 E6P7, Ireland","placeId":"ChIJ_x4v3AGFXkgRAdm4c6Mknss"},{"name":"Cinemac Macclesfield","city":"Macclesfield","country":"United Kingdom","chain":"Independent","category":"Independent","lat":53.257966,"lng":-2.1274356,"address":"The Heritage Centre, Roe St, Macclesfield SK11 6UT, UK","placeId":"ChIJFX2tJDpJekgR3LhlAawN-68"},{"name":"Cinemax Bantry","city":"Bantry","country":"Ireland","chain":"Independent","category":"Independent","lat":51.6801653,"lng":-9.4559757,"address":"The Quays, Town Lots, Bantry, Co. Cork, P75 YE09, Ireland","placeId":"ChIJryYdh_4KRUgR6dzOS0imLJM"},{"name":"Close-Up Sclater St London","city":"London","country":"United Kingdom","chain":"Independent","category":"Independent","lat":51.5236256,"lng":-0.0720474,"address":"97 Sclater St, London E1 6HR, UK","placeId":"ChIJbZBPuLccdkgRCzE3PLbX4BU"},{"name":"Coliseum Brecon","city":"Brecon","country":"United Kingdom","chain":"Independent","category":"Independent","lat":51.947401,"lng":-3.3919532,"address":"Wheat St, Brecon LD3 7DG, UK","placeId":"ChIJpb5ljuYybkgRNYj3OC2lZaI"},{"name":"Commodore Aberystwyth","city":"Aberystwyth","country":"United Kingdom","chain":"Independent","category":"Independent","lat":52.4171667,"lng":-4.0834294,"address":"Bath St, Aberystwyth SY23 2NN, UK","placeId":"ChIJDenXbFV2b0gRGzE9wpKSItA"},{"name":"Commodore Cinema","city":"Ryde","country":"United Kingdom","chain":"Independent","category":"Independent","lat":50.7277302,"lng":-1.1624305,"address":"2 Star St, Ryde PO33 2HX, UK","placeId":"ChIJuYkRDxthdEgRR7VYHToMtCI"},{"name":"Connaught Ritz","city":"Worthing","country":"United Kingdom","chain":"Independent","category":"Independent","lat":50.8135955,"lng":-0.3704759,"address":"Union Pl, Worthing BN11 1LG, UK","placeId":"ChIJ434C2YWidUgRrJWMI-xpxWs"},{"name":"Corn Exchange","city":"Newbury","country":"United Kingdom","chain":"Independent","category":"Independent","lat":51.40065,"lng":-1.3230006,"address":"Market Pl, Newbury RG14 5BD, UK","placeId":"ChIJ2UjOxiGmdkgRql4UnUAywrs"},{"name":"Corn Exchange Cinema King's Lynn","city":"King's Lynn","country":"United Kingdom","chain":"Independent","category":"Independent","lat":52.7563019,"lng":0.3937137,"address":"Tuesday Market Pl, King's Lynn PE30 1JW, UK","placeId":"ChIJJx4tujKL10cRUiUAmPhsXKE"},{"name":"Cottage Road Cinema","city":"Leeds","country":"United Kingdom","chain":"Independent","category":"Independent","lat":53.8269064,"lng":-1.5817592,"address":"Cottage Road Cinema, Cottage Rd, Headingley, Leeds LS6 4DD, UK","placeId":"ChIJkaduWDhZeUgRULSrkFAzDBM"},{"name":"Courtyard Hereford","city":"Hereford","country":"United Kingdom","chain":"Independent","category":"Independent","lat":52.0610466,"lng":-2.7187624,"address":"The Courtyard, Edgar St, Hereford HR4 9JR, UK","placeId":"ChIJT2FZRTpKcEgR79IEJ5pXOSM"},{"name":"Covent Garden Hotel","city":"London","country":"United Kingdom","chain":"Independent","category":"Independent","lat":51.5145658,"lng":-0.1271199,"address":"10 Monmouth St, London WC2H 9HB, UK","placeId":"ChIJe0XrMc0EdkgR73cT3U4ghp4"},{"name":"Cromarty Cinema Inverness IND","city":"Inverness","country":"United Kingdom","chain":"Independent","category":"Independent","lat":57.6836519,"lng":-4.0363643,"address":"Cromarty IV11 8XZ, UK","placeId":"ChIJ0ZiNb8KFj0gRSxwwHW118Ew"},{"name":"Cube Cinema Bristol","city":"Bristol","country":"United Kingdom","chain":"Independent","category":"Independent","lat":51.4611914,"lng":-2.5932364,"address":"Dove St S, Avon, Bristol BS2 8JD, UK","placeId":"ChIJAajtNWyOcUgRU65hg03DvSU"},{"name":"Cumbernauld Theatre","city":"Cumbernauld","country":"United Kingdom","chain":"Independent","category":"Independent","lat":55.9488076,"lng":-3.9710974,"address":"South Kildrum, Ring Road, Cumbernauld, Lanternhouse G67 2UF, UK","placeId":"ChIJn7F2-V5viEgRCSREYjhnZk4"},{"name":"Customs House","city":"South Shields","country":"United Kingdom","chain":"Independent","category":"Independent","lat":54.994942,"lng":-1.4409226,"address":"Mill Dam, South Shields NE33 1ES, UK","placeId":"ChIJaRLQox1vfkgR_hVDjt5decE"},{"name":"DCA Dundee","city":"Dundee","country":"United Kingdom","chain":"Independent","category":"Independent","lat":56.4573264,"lng":-2.9750128,"address":"152 Nethergate, Dundee DD1 4EA, UK","placeId":"ChIJx84Job9chkgRvJH6mW8Y_mE"},{"name":"Daneside Theatre","city":"Congleton","country":"United Kingdom","chain":"Independent","category":"Independent","lat":53.1656925,"lng":-2.2105319,"address":"Park Rd, Congleton CW12 1DP, UK","placeId":"ChIJmZtEKRhFekgRv_t-uiOf09s"},{"name":"David Lean Cinema","city":"Croydon","country":"United Kingdom","chain":"Independent","category":"Independent","lat":51.372163,"lng":-0.099008,"address":"Katharine St, Croydon CR9 1ET, UK","placeId":"ChIJ5ZK8HjQHdkgRevmL29mKyl0"},{"name":"Depot Cinema Lewes","city":"Lewes","country":"United Kingdom","chain":"Independent","category":"Independent","lat":50.8714322,"lng":0.0120217,"address":"Pinwell Rd, Lewes BN7 2JS, UK","placeId":"ChIJ68a6Vpdi30cRfrHNz2u_uP0"},{"name":"Dome Cinema Worthing","city":"Worthing","country":"United Kingdom","chain":"Independent","category":"Independent","lat":50.8101178,"lng":-0.3680732,"address":"21-22 Marine Parade, Worthing BN11 3PT, UK","placeId":"ChIJz_B2coKidUgRS7P3g4WH_04"},{"name":"Dominion Edinburgh","city":"Edinburgh","country":"United Kingdom","chain":"Independent","category":"Independent","lat":55.9308195,"lng":-3.2087808,"address":"Newbattle Terrace, Edinburgh EH10 4RT, UK","placeId":"ChIJu2pZTgzHh0gRNhvXAzENjEA"},{"name":"Dorking Hall Cinema","city":"Dorking","country":"United Kingdom","chain":"Independent","category":"Independent","lat":51.2345572,"lng":-0.3255087,"address":"Reigate Rd, Dorking RH4 1SG, UK","placeId":"ChIJcZQ6cOLmdUgRkwMn7Cn71Rk"},{"name":"Dukes Theatre","city":"Lancaster","country":"United Kingdom","chain":"Independent","category":"Independent","lat":54.0491414,"lng":-2.7970477,"address":"Moor Ln, Lancaster LA1 1QE, UK","placeId":"ChIJDQ1OjoBie0gR8zHtMmkA6AM"},{"name":"Dunamaise Arts Centre","city":"Portlaoise","country":"Ireland","chain":"Independent","category":"Independent","lat":53.0343718,"lng":-7.2999834,"address":"12 Church St, Maryborough, Portlaoise, Co. Laois, R32 W93P, Ireland","placeId":"ChIJVW0gbMsNXUgROWmUHAP5ABw"},{"name":"East Coast Cinema","city":"Lowestoft","country":"United Kingdom","chain":"Independent","category":"Independent","lat":52.4712344,"lng":1.7478032,"address":"41 London Rd S, Kirkley, Lowestoft NR33 0AS, UK","placeId":"ChIJt2-tApao2EcRAMJMjsbeBKU"},{"name":"Eden Court Inverness","city":"Inverness","country":"United Kingdom","chain":"Independent","category":"Independent","lat":57.4728637,"lng":-4.2309147,"address":"Bishops Rd, Inverness IV3 5SA, UK","placeId":"ChIJnTkPzFBxj0gRRw8Cmkf6G7c"},{"name":"Electric Palace Harwich","city":"Harwich","country":"United Kingdom","chain":"Independent","category":"Independent","lat":51.9464959,"lng":1.2888295,"address":"King's Quay St, Harwich CO12 3ER, UK","placeId":"ChIJD-hTpMN22UcRwEu20soQf3E"},{"name":"Elgiva Chesham","city":"Chesham","country":"United Kingdom","chain":"Independent","category":"Independent","lat":51.7079889,"lng":-0.6123,"address":"St Mary's Way, Chesham HP5 1HR, UK","placeId":"ChIJOUN75gtddkgR3wE373lU820"},{"name":"Elite Cinema and Theatre Ashbourne","city":"Ashbourne","country":"United Kingdom","chain":"Independent","category":"Independent","lat":53.0181706,"lng":-1.7319372,"address":"Elite Buildings, Market Place, Ashbourne DE6 1ES, UK","placeId":"ChIJxVDR8UMZekgRuTPvxpNE0Fk"},{"name":"Ely Community Cinema","city":"Ely","country":"United Kingdom","chain":"Independent","category":"Independent","lat":52.395303,"lng":0.2690913,"address":"The Maltings, ELY CB7 4BB, UK","placeId":"ChIJ001TAJCePUMRpGD1fiGQoDs"},{"name":"Empire Holyhead","city":"Anglesey","country":"United Kingdom","chain":"Independent","category":"Independent","lat":53.3127436,"lng":-4.6330524,"address":"Stanley St, Holyhead LL65 1HL, UK","placeId":"ChIJGSjWOAA1ZEgRh083v-fPCxU"},{"name":"Empire Moviplex Ennis","city":"Ennis","country":"Ireland","chain":"Independent","category":"Independent","lat":52.8438647,"lng":-8.9850156,"address":"36 Parnell St, Clonroad Beg, Ennis, Co. Clare, V95 YX8F, Ireland","placeId":"ChIJlQmTxNISW0gRpjFIA-KvftE"},{"name":"Empire Sandwich","city":"Sandwich","country":"United Kingdom","chain":"Independent","category":"Independent","lat":51.2754402,"lng":1.3381812,"address":"Delf St, Sandwich CT13 9HD, UK","placeId":"ChIJYy7epuyt3kcRSBQvHPmE0Hw"},{"name":"Empire Theatre","city":"Consett","country":"United Kingdom","chain":"Independent","category":"Independent","lat":54.8516389,"lng":-1.8316919,"address":"5ab, Front St, Consett DH8 5AB, UK","placeId":"ChIJnRD3fvjTfUgR0z2m6W6oOh0"},{"name":"Empire Theatre Halstead","city":"Halstead","country":"United Kingdom","chain":"Independent","category":"Independent","lat":51.9457889,"lng":0.6315067,"address":"57 Butler Rd, Halstead CO9 1LL, UK","placeId":"ChIJyQV1Y3r52EcRcIcil09LYwc"},{"name":"Eye Cinema Galway","city":"Galway","country":"Ireland","chain":"Independent","category":"Independent","lat":53.2812912,"lng":-9.0312432,"address":"Wellpark Retail Park, Wellpark Rd, Galway, H91 X4AV, Ireland","placeId":"ChIJhQ-sncaWW0gR9euBhkFgJqU"},{"name":"Falkirk Hippodrome","city":"Bo-ness","country":"United Kingdom","chain":"Independent","category":"Independent","lat":56.0175626,"lng":-3.608245,"address":"10 Hope St, Bo'ness EH51 0AA, UK","placeId":"ChIJz9TBzlLWh0gRF7B7qDrEy9g"},{"name":"Fareham Live","city":"Fareham","country":"United Kingdom","chain":"Independent","category":"Independent","lat":50.8545232,"lng":-1.1767092,"address":"Osborn Rd, Fareham PO16 7DB, UK","placeId":"ChIJi2HZuu1pdEgRLxEVrHqNRnM"},{"name":"Farnham Maltings","city":"Farnham","country":"United Kingdom","chain":"Independent","category":"Independent","lat":51.2115692,"lng":-0.7980048,"address":"Bridge Square, Farnham GU9 7QR, UK","placeId":"ChIJ8Y9t6qktdEgRpymcs8C6euU"},{"name":"Festival Drayton Centre","city":"Drayton","country":"United Kingdom","chain":"Independent","category":"Independent","lat":52.9038276,"lng":-2.4860891,"address":"Frogmore Rd, Market Drayton TF9 3AX, UK","placeId":"ChIJzcRtOg6JekgRb5csFUAxjd8"},{"name":"Filmcentre Wells","city":"Wells","country":"United Kingdom","chain":"Independent","category":"Independent","lat":51.206766,"lng":-2.6507675,"address":"Princes Rd, Wells, Postcode: BA5 1TD, UK","placeId":"ChIJk6MX-msickgRcLlS3YWdONw"},{"name":"Firstsite Colchester","city":"Colchester","country":"United Kingdom","chain":"Independent","category":"Independent","lat":51.8889806,"lng":0.9053717,"address":"Lewis Gardens, High Street, Colchester CO1 1JH, UK","placeId":"ChIJwdQ5qPkE2UcRoiqw-0jJ4dc"},{"name":"Flix Loughborough University","city":"Loughborough","country":"United Kingdom","chain":"Independent","category":"Independent","lat":52.7650253,"lng":-1.2320904,"address":"Epinal Way, Loughborough LE11 3TU, UK","placeId":"ChIJB2WkiNzgeUgRqoPzt_oNpcI"},{"name":"Flower Bowl Preston","city":"Preston","country":"United Kingdom","chain":"Independent","category":"Independent","lat":53.8620082,"lng":-2.7461165,"address":"Garstang Rd, Preston PR3 0BT, UK","placeId":"ChIJpZMJgDJve0gRe_ff2FS8HEQ"},{"name":"Forest Cinema Walthamstow","city":"Walthamstow","country":"United Kingdom","chain":"Independent","category":"Independent","lat":51.5849528,"lng":-0.0200305,"address":"267 High St, London E17 7LD, UK","placeId":"ChIJY9FDEgAddkgRQ_aUsIwTt1w"},{"name":"Forum Cinema Hexham","city":"Hexham","country":"United Kingdom","chain":"Independent","category":"Independent","lat":54.9719526,"lng":-2.1009894,"address":"8-9 Market Pl, Hexham NE46 1XF, UK","placeId":"ChIJ47LYj7jHfUgRZYAAQjlsGw8"},{"name":"Forum Cinema Northampton","city":"Northampton","country":"United Kingdom","chain":"Independent","category":"Independent","lat":52.2570152,"lng":-0.8334239,"address":"Weston Favell Centre, Billing Brook Rd, Northampton NN3 8JR, UK","placeId":"ChIJv8G-4HMJd0gRoe0GJyTnQSc"},{"name":"Forum Northallerton Hambleton","city":"Northallerton","country":"United Kingdom","chain":"Independent","category":"Independent","lat":54.34092,"lng":-1.430603,"address":"Bullamoor Rd, Northallerton DL6 1LP, UK","placeId":"ChIJVW-xtYO8fkgRj0Lc10RmYaI"},{"name":"Gaiety Cinema Whitehaven","city":"Whitehaven","country":"United Kingdom","chain":"Independent","category":"Independent","lat":54.5501277,"lng":-3.5876709,"address":"Tangier St, Whitehaven CA28 7UZ, UK","placeId":"ChIJ2UDHkOQxY0gR1RrsRpRHOGA"},{"name":"Gala Theatre and Cinema Durham","city":"Durham","country":"United Kingdom","chain":"Independent","category":"Independent","lat":54.7783624,"lng":-1.5751337,"address":"1 Millennium Place, Durham DH1 1WA, UK","placeId":"ChIJl2vg1Yt9fkgRvTj0A3qJiKE"},{"name":"Galeri Caernarfon","city":"Caernarfon","country":"United Kingdom","chain":"Independent","category":"Independent","lat":53.143312,"lng":-4.275318,"address":"Doc Victoria, Caernarfon, Gwynedd, Caernarfon LL55 1SQ, UK","placeId":"ChIJjYC_Kl6vZUgR33DWt18JGcA"},{"name":"Garden City Cinema","city":"Welwyn Garden City","country":"United Kingdom","chain":"Independent","category":"Independent","lat":51.8052924,"lng":-0.2082144,"address":"The Campus, Welwyn Garden City AL8 6BX, UK","placeId":"ChIJ07ruTCE7dkgRIsMtdfVyM2I"},{"name":"Gate Cork","city":"Cork City","country":"Ireland","chain":"Independent","category":"Independent","lat":51.9008639,"lng":-8.4796871,"address":"N Main St, Centre, Cork, Co. Cork, T12 KN88, Ireland","placeId":"ChIJ4WLIuxaQREgRxuHGpqETMsM"},{"name":"Gate Mallow","city":"Mallow","country":"Ireland","chain":"Independent","category":"Independent","lat":52.1377635,"lng":-8.6406983,"address":"Market Square, Mallow, Co. Cork, P51 R68A, Ireland","placeId":"ChIJ8bd8CP27REgRBd76SZQkP7Y"},{"name":"Gate Midleton","city":"Midleton","country":"Ireland","chain":"Independent","category":"Independent","lat":51.9173079,"lng":-8.1794836,"address":"Gate Midleton, Market Green, Knockgriffin (Imokilly), Midleton, Co. Cork, P25 XD65, Ireland","placeId":"ChIJef_JvyhjQ0gRVPNsHvS-Tds"},{"name":"Gateway Seaton Town Hall","city":"Seaton","country":"United Kingdom","chain":"Independent","category":"Independent","lat":50.7057752,"lng":-3.0704229,"address":"Fore St, Seaton EX12 2LE, UK","placeId":"ChIJJ_3XUSOBbUgR-b2iZHYG8Ag"},{"name":"Genesis Cinema Mile End","city":"London","country":"United Kingdom","chain":"Independent","category":"Independent","lat":51.5211404,"lng":-0.051122,"address":"93-95 Mile End Rd, Bethnal Green, London E1 4UJ, UK","placeId":"ChIJ9yIOl9YcdkgRFnIx9hqT4gM"},{"name":"Glasgow Film Theatre","city":"Glasgow","country":"United Kingdom","chain":"Independent","category":"Independent","lat":55.865662,"lng":-4.261247,"address":"12 Rose St, Glasgow G3 6RB, UK","placeId":"ChIJvRdI3SZEiEgRKj8SE10cSDU"},{"name":"Glasgow Hillhead","city":"Glasgow","country":"United Kingdom","chain":"Independent","category":"Independent","lat":55.8745761,"lng":-4.2931963,"address":"24 Ashton Ln, Glasgow G12 8SJ, UK","placeId":"ChIJ14u4W85FiEgRw_Gal7TLsBU"},{"name":"Glasgow Science Centre IMAX","city":"Glasgow","country":"United Kingdom","chain":"Independent","category":"Independent","lat":55.8580198,"lng":-4.2938113,"address":"Science Centre, 50 Pacific Quay, Glasgow G51 1EA, UK","placeId":"ChIJGUJ_SnhGiEgR3tAzCbIp1t0"},{"name":"Gloucester Guildhall","city":"Gloucester","country":"United Kingdom","chain":"Independent","category":"Independent","lat":51.8647257,"lng":-2.2446047,"address":"23 Eastgate St, Gloucester GL1 1NS, UK","placeId":"ChIJWZxO-HoGcUgRsnf6rG6zNtE"},{"name":"Grove Theatre Dunstable","city":"Dunstable","country":"United Kingdom","chain":"Independent","category":"Independent","lat":51.8906013,"lng":-0.5222009,"address":"Court Drive, Dunstable LU5 4GP, UK","placeId":"ChIJf3GMDQFPdkgRni6TecS4gr0"},{"name":"Gulbenkian Cinema","city":"Canterbury","country":"United Kingdom","chain":"Independent","category":"Independent","lat":51.2986609,"lng":1.0692611,"address":"Gulbenkian Theatre, Canterbury CT2 7NB, UK","placeId":"ChIJ45gruKfL3kcR9wfUKtU6G7Y"},{"name":"Gwyn Hall Neath","city":"Neath","country":"United Kingdom","chain":"Independent","category":"Independent","lat":51.6627997,"lng":-3.8040836,"address":"Orchard St, Neath SA11 1DU, UK","placeId":"ChIJdc1_m8xdbkgRbWxTgCUMHQA"},{"name":"Ham Yard Hotel","city":"London","country":"United Kingdom","chain":"Independent","category":"Independent","lat":51.511305,"lng":-0.134756,"address":"1 Ham Yard, London W1D 7DT, UK","placeId":"ChIJAU6CitMEdkgRsjUCSDm1N9s"},{"name":"Haslemere Hall","city":"Haslemere","country":"United Kingdom","chain":"Independent","category":"Independent","lat":51.0900306,"lng":-0.7109501,"address":"Bridge Rd, Haslemere GU27 2AS, UK","placeId":"ChIJmeZpOWPLdUgRSAp9l6L5qbo"},{"name":"Haverhill Arts Centre","city":"Haverhill","country":"United Kingdom","chain":"Independent","category":"Independent","lat":52.0808144,"lng":0.440633,"address":"High St, Haverhill CB9 8AR, UK","placeId":"ChIJhzVd7PNe2EcRRmTwlODmWWE"},{"name":"Heart Of Hawick","city":"Hawick","country":"United Kingdom","chain":"Independent","category":"Independent","lat":55.4212254,"lng":-2.7882356,"address":"2 Kirkstile, Hawick TD9 0AE, UK","placeId":"ChIJ-V67CM59fUgRygaMs7Z7gxY"},{"name":"Heckfield Place","city":"Hook","country":"United Kingdom","chain":"Independent","category":"Independent","lat":51.3439058,"lng":-0.9503472,"address":"Heckfield Pl, Heckfield, Hook RG27 0LD, UK","placeId":"ChIJgVQLgpGddkgRc8zNRJwjroI"},{"name":"Highland Cinema Fort William","city":"Fort William","country":"United Kingdom","chain":"Independent","category":"Independent","lat":56.8176152,"lng":-5.1105698,"address":"Cameron Square, Fort William PH33 6AJ, UK","placeId":"ChIJrwWL8ZnNjkgRu1ya5tvYwno"},{"name":"Hollywood Plaza Scarborough","city":"Scarborough","country":"United Kingdom","chain":"Independent","category":"Independent","lat":54.2804414,"lng":-0.4056671,"address":"Westborough, Scarborough YO11 1JW, UK","placeId":"ChIJG7KqzPJHf0gROJjQVYTkKvs"},{"name":"Home Manchester","city":"Manchester","country":"United Kingdom","chain":"Independent","category":"Independent","lat":53.4736232,"lng":-2.2465908,"address":"2 Tony Wilson Pl, Manchester M15 4FN, UK","placeId":"ChIJ14MWO-mxe0gR7e1ynio3WNs"},{"name":"Hyde Park Leeds","city":"Leeds","country":"United Kingdom","chain":"Independent","category":"Independent","lat":53.8121095,"lng":-1.5693344,"address":"73 Brudenell Rd, Leeds LS6 1JD, UK","placeId":"ChIJOx2jbrNeeUgRNUvMfXh7jys"},{"name":"ICA London","city":"London","country":"United Kingdom","chain":"Independent","category":"Independent","lat":51.5060461,"lng":-0.1311716,"address":"The Mall, London SW1Y 5AH, UK","placeId":"ChIJpwrHSNAEdkgR1YO1RjflYXw"},{"name":"INDY Cinema Group","city":"Edinburgh","country":"United Kingdom","chain":"Independent","category":"Independent","lat":55.9398451,"lng":-3.1822009,"address":"TechCube 1, 1 Summerhall Pl, Edinburgh EH9 1PL, UK","placeId":"ChIJB1WXJ_LHh0gRHB6j5M_KY4A"},{"name":"Ilkley Cinema","city":"Ilkley","country":"United Kingdom","chain":"Independent","category":"Independent","lat":53.926609,"lng":-1.8200881,"address":"46A Leeds Rd, Ilkley LS29 8DP, UK","placeId":"ChIJxU61qx37e0gRBQj4q1wSUrE"},{"name":"Imperial College Student Cinema","city":"London","country":"United Kingdom","chain":"Independent","category":"Independent","lat":51.5001184,"lng":-0.1781267,"address":"2nd Floor, Union Building, Beit, Quadrangle, Prince Consort Rd, South Kensington, London SW7 2BB, UK","placeId":"ChIJyw0mb1sFdkgRxuGSLIeQLms"},{"name":"Indy @ 40 Leadenhall","city":"London","country":"United Kingdom","chain":"Independent","category":"Independent","lat":51.5130973,"lng":-0.0800546,"address":"40 Leadenhall St, London EC3A 2AD, UK","placeId":"ChIJMZ5XPKADdkgRoMa6-y-VOg0"},{"name":"Institut Francais CineLumiere","city":"London","country":"United Kingdom","chain":"Independent","category":"Independent","lat":51.4945536,"lng":-0.1770752,"address":"17 Queensberry Pl, South Kensington, London SW7 2DW, UK","placeId":"ChIJNW1qQ10FdkgR6OmZOqgNK8k"},{"name":"Irish Film Institute Dublin","city":"Dublin","country":"Ireland","chain":"Independent","category":"Independent","lat":53.3446347,"lng":-6.2649033,"address":"6 Eustace St, Temple Bar, Dublin 2, D02 PD85, Ireland","placeId":"ChIJ2wqAKJ0OZ0gR4vWWWOJdWfU"},{"name":"Island Cinema","city":"Lytham St Annes","country":"United Kingdom","chain":"Independent","category":"Independent","lat":53.7467079,"lng":-3.0315981,"address":"121-123 South Promenade, Lytham St Annes, Lytham Saint Annes FY8 1LS, UK","placeId":"ChIJheHO4StBe0gR0WGTBSGZ8dE"},{"name":"Isle Of Bute Discovery Centre","city":"Rothesay","country":"United Kingdom","chain":"Independent","category":"Independent","lat":55.8381169,"lng":-5.0556686,"address":"Victoria St, Rothesay, Isle of Bute PA20 0AP, UK","placeId":"ChIJ12xz0gOWiUgRztYd8nQdiEM"},{"name":"Isle of Skye Candle Company LTD","city":"Portree","country":"United Kingdom","chain":"Independent","category":"Independent","lat":57.4018087,"lng":-6.2011322,"address":"Viewfield Rd, Portree IV51 9EU, UK","placeId":"ChIJGTRr5dUzjEgRmqN_dMUh9PI"},{"name":"JW3 Finchley","city":"London","country":"United Kingdom","chain":"Independent","category":"Independent","lat":51.5509329,"lng":-0.1847415,"address":"341-351 Finchley Rd, London NW3 6ET, UK","placeId":"ChIJI30Hu4oadkgRnDUGJJDQYvw"},{"name":"Jam Jar Cinema","city":"Whitley Bay","country":"United Kingdom","chain":"Independent","category":"Independent","lat":55.042748,"lng":-1.446374,"address":"18-24 Park Ave, Whitley Bay NE26 1DG, UK","placeId":"ChIJb5_meShsfkgR51tNHmjE8Gg"},{"name":"Junction Cinema Goole","city":"Goole","country":"United Kingdom","chain":"Independent","category":"Independent","lat":53.7044054,"lng":-0.8719564,"address":"Paradise Place, Goole DN14 5DL, UK","placeId":"ChIJD7IoygkfeUgR4y8ZFvpom78"},{"name":"Kavanagh Cinema","city":"Herne Bay","country":"United Kingdom","chain":"Independent","category":"Independent","lat":51.3702778,"lng":1.1275,"address":"William St, Herne Bay CT6 5NX, UK","placeId":"ChIJV6paRGM12UcR06ubnG75QZI"},{"name":"Kiln Cinema Kilburn","city":"London","country":"United Kingdom","chain":"Independent","category":"Independent","lat":51.5433231,"lng":-0.2000048,"address":"269 Kilburn High Rd, London NW6 7JR, UK","placeId":"ChIJfx_LZ_MRdkgRIm5r-EzwN-U"},{"name":"Kinema in the Woods","city":"Woodhall Spa","country":"United Kingdom","chain":"Independent","category":"Independent","lat":53.155685,"lng":-0.2139514,"address":"Coronation Rd, Woodhall Spa LN10 6QD, UK","placeId":"ChIJnb20Gz1ueEgRjDAJ5yHl5fI"},{"name":"King Street Cinema Ipswich","city":"Ipswich","country":"United Kingdom","chain":"Independent","category":"Independent","lat":52.0573533,"lng":1.1523542,"address":"Corn Exchange, King St, Ipswich IP1 1DH, UK","placeId":"ChIJA6iYIC2g2UcRaN7Ff8r8iAk"},{"name":"Kino Cinema Glenrothes","city":"Glenrothes","country":"United Kingdom","chain":"Independent","category":"Independent","lat":56.1953411,"lng":-3.1728672,"address":"2 Church St, Glenrothes KY7 5ND, UK","placeId":"ChIJR1NzKu5KhkgR96Lq-zTkFV0"},{"name":"Kino Hawkhurst","city":"Hawkhurst","country":"United Kingdom","chain":"Independent","category":"Independent","lat":51.0472034,"lng":0.5111574,"address":"Victoria Hall, Rye Rd, Hawkhurst, Cranbrook TN18 4ET, UK","placeId":"ChIJ6Xj7Vgc930cRPuJ4sCoyqtc"},{"name":"Kino Rye","city":"Rye","country":"United Kingdom","chain":"Independent","category":"Independent","lat":50.9503681,"lng":0.7334597,"address":"Lion St, Rye TN31 7LB, UK","placeId":"ChIJTQZjtyMe30cRI9gs9SBLwYk"},{"name":"Kino Teatr","city":"St Leonards","country":"United Kingdom","chain":"Independent","category":"Independent","lat":50.8521873,"lng":0.5596838,"address":"43-49 Norman Rd, Hastings, St Leonards, Saint Leonards-on-sea TN38 0EG, UK","placeId":"ChIJo38mJ68a30cReH1F1hJUO4M"},{"name":"Kirkgate Cinema Cockermouth","city":"Kirkgate","country":"United Kingdom","chain":"Independent","category":"Independent","lat":54.6636257,"lng":-3.3592556,"address":"The Kirkgate Centre, Kirkgate, Cockermouth CA13 9PJ, UK","placeId":"ChIJV6RZS6bWfEgR7XIP_lyO10o"},{"name":"Leatherhead Theatre","city":"Leatherhead","country":"United Kingdom","chain":"Independent","category":"Independent","lat":51.2947882,"lng":-0.3288301,"address":"The Theatre, 7 Church St, Leatherhead KT22 8DN, UK","placeId":"ChIJr-FHN_3gdUgRogD_eA5B2hA"},{"name":"Leighton Buzzard Theatre","city":"Leighton Buzzard","country":"United Kingdom","chain":"Independent","category":"Independent","lat":51.9159655,"lng":-0.6592957,"address":"Lake St, Leighton Buzzard LU7 1RX, UK","placeId":"ChIJDy9RXkhRdkgR5gXlrT3Lqyo"},{"name":"Leiston Film Theatre","city":"Leiston","country":"United Kingdom","chain":"Independent","category":"Independent","lat":52.2055626,"lng":1.5775186,"address":"74 High St, Leiston IP16 4BZ, UK","placeId":"ChIJIc2wQ5In2kcR3L4-vh0xDy0"},{"name":"Lighthouse Arts Poole","city":"Poole","country":"United Kingdom","chain":"Independent","category":"Independent","lat":50.7186148,"lng":-1.9774971,"address":"21 Kingland Rd, Poole BH15 1UG, UK","placeId":"ChIJ126BXcKmc0gRMRLbkBbjD9A"},{"name":"Lighthouse Dublin","city":"Smithfield","country":"Ireland","chain":"Independent","category":"Independent","lat":53.3487938,"lng":-6.2790491,"address":"Market St S, Smithfield, Dublin 7, D07 R6YE, Ireland","placeId":"ChIJi15MliMMZ0gRF0OPS9-7BCg"},{"name":"Living Room Chipping Norton","city":"Oxfordshire","country":"United Kingdom","chain":"Independent","category":"Independent","lat":51.9428196,"lng":-1.5442761,"address":"29 High St, Chipping Norton OX7 5AD, UK","placeId":"ChIJq6omdbTUdkgR4WyKCFjyMqQ"},{"name":"Lonsdale Alhambra Penrith","city":"Penrith","country":"United Kingdom","chain":"Independent","category":"Independent","lat":54.665541,"lng":-2.75392,"address":"47 Middlegate, Penrith CA11 7PT, UK","placeId":"ChIJ5bXuwH_7fEgRz1pBOmJbpuw"},{"name":"Lonsdale Annan","city":"Annan","country":"United Kingdom","chain":"Independent","category":"Independent","lat":54.9885004,"lng":-3.2625681,"address":"Moat Rd, Annan DG12 5DE, UK","placeId":"ChIJmUkY_BU6fUgRNKUfwMUeIsU"},{"name":"Lume Kidderminster","city":"Kidderminster","country":"United Kingdom","chain":"Independent","category":"Independent","lat":52.3821167,"lng":-2.2485559,"address":"Green St, Kidderminster DY10 1JF, UK","placeId":"ChIJXwRYDfWMcEgRi0C5bIM92S4"},{"name":"Lumiere Romford","city":"Romford","country":"United Kingdom","chain":"Independent","category":"Independent","lat":51.5794515,"lng":0.1856615,"address":"Level 3, The Mercury Shopping Centre, Mercury Gardens, Romford RM1 3EE, UK","placeId":"ChIJ7WH5-A-l2EcRweta63Ap4Zg"},{"name":"Luxe Cinema Wisbech","city":"Wisbech","country":"United Kingdom","chain":"Independent","category":"Independent","lat":52.6632505,"lng":0.1590078,"address":"Institute Hall, Alexandra Rd, Wisbech PE13 1HQ, UK","placeId":"ChIJNahp73wL2EcRPaQjcprmS0M"},{"name":"Lynton Cinema","city":"Lynton","country":"United Kingdom","chain":"Independent","category":"Independent","lat":51.2304073,"lng":-3.8368703,"address":"Lee Rd, Lynton EX35 6HN, UK","placeId":"ChIJRTmyW-jUbUgRgWL7CyHtHQQ"},{"name":"MAC Birmingham","city":"Birmingham","country":"United Kingdom","chain":"Independent","category":"Independent","lat":52.4528617,"lng":-1.9037082,"address":"Cannon Hill Park, Birmingham B12 9QH, UK","placeId":"ChIJT30Phj68cEgRZL5JSyGD0qQ"},{"name":"Mablethorpe Loewen Cinema","city":"Mablethorpe","country":"United Kingdom","chain":"Independent","category":"Independent","lat":53.3496123,"lng":0.2563786,"address":"Quebec Rd, Mablethorpe LN12 1LT, UK","placeId":"ChIJqfWj1_3M10cR3KQHKH44y6w"},{"name":"Macroberts Arts","city":"Stirling","country":"United Kingdom","chain":"Independent","category":"Independent","lat":56.145631,"lng":-3.92037,"address":"University of Stirling, Stirling FK9 4LA, UK","placeId":"ChIJ0bhmYO1iiEgRtKXAsHgcZjk"},{"name":"Magic Lantern Cinema","city":"Tywyn","country":"United Kingdom","chain":"Independent","category":"Independent","lat":52.5880051,"lng":-4.0846715,"address":"6a Corbet Square, Tywyn LL36 9DF, UK","placeId":"ChIJbXq13Ap_b0gRIGZCXxWe-oc"},{"name":"Majestic Kings Lynn","city":"Kings Lynn","country":"United Kingdom","chain":"Independent","category":"Independent","lat":52.7529943,"lng":0.397495,"address":"Tower St, King's Lynn PE30 1EJ, UK","placeId":"ChIJtxEbTCyL10cRN__L3AXStTQ"},{"name":"Malmesbury Town Hall","city":"Wilts","country":"United Kingdom","chain":"Independent","category":"Independent","lat":51.5836807,"lng":-2.0967657,"address":"Cross Hayes Ln, Malmesbury SN16 9BZ, UK","placeId":"ChIJ455B0ONtcUgR_y1zCXQelHI"},{"name":"Market Hall Cinema Brynmawr IND","city":"Brynmawr","country":"United Kingdom","chain":"Independent","category":"Independent","lat":51.7980281,"lng":-3.1742801,"address":"Market Square, Brynmawr, Ebbw Vale NP23 4AJ, UK","placeId":"ChIJU5lz4c0nbkgRhOrKi1g29jA"},{"name":"Market Harborough","city":"Market Harborough","country":"United Kingdom","chain":"Independent","category":"Independent","lat":52.4783654,"lng":-0.9207283,"address":"Church Square, Market Harborough LE16 7NB, UK","placeId":"ChIJN7AZ7QRxd0gRBul3blQa9uc"},{"name":"Maxime Cinema Blackwood","city":"Caerphilly","country":"United Kingdom","chain":"Independent","category":"Independent","lat":51.6653971,"lng":-3.194789,"address":"196 High St, Blackwood NP12 1AH, UK","placeId":"ChIJTUnqPpQhbkgRpqUu0qsOSiw"},{"name":"Mayfair Hotel","city":"London","country":"United Kingdom","chain":"Independent","category":"Independent","lat":51.5081643,"lng":-0.1438453,"address":"A Radisson Collection Hotel, The May Fair, Stratton St, London W1J 8LT, UK","placeId":"ChIJMTF4qAkFdkgRhf_iPuLZu7o"},{"name":"MediCinema Alder Hey","city":"Liverpool","country":"United Kingdom","chain":"Independent","category":"Independent","lat":53.4180159,"lng":-2.896374,"address":"E Prescot Rd, Liverpool L14 5AB, UK","placeId":"ChIJ-y3ZHgAhe0gRDe3tSESOv0k"},{"name":"Medicinema Chelsea Westminster","city":"London","country":"United Kingdom","chain":"Independent","category":"Independent","lat":51.4842358,"lng":-0.1812241,"address":"Chelsea & Westminster Hospital, 3rd floor, Lift Bank D, 369 Fulham Rd., London SW10 9NH, UK","placeId":"ChIJB1Zx_DYFdkgRNIgs4hqTt7w"},{"name":"Medicinema Guys","city":"London","country":"United Kingdom","chain":"Independent","category":"Independent","lat":51.5045503,"lng":-0.0880489,"address":"Guy's Hospital, Conybeare House, London SE1 9RT, UK","placeId":"ChIJO1xQVVcDdkgRHY4waJ1NlRU"},{"name":"Medicinema Serennu Childrens Centre","city":"Rogerstone","country":"United Kingdom","chain":"Independent","category":"Independent","lat":51.5884561,"lng":-3.0383192,"address":"Cwrt Camlas, T\u0177-du, Newport NP10 9LY, UK","placeId":"ChIJyf6aHxHhcUgRGQMGN4wistk"},{"name":"Medicinema Tyneside","city":"Newcastle Upon Tyne","country":"United Kingdom","chain":"Independent","category":"Independent","lat":54.9801829,"lng":-1.618915,"address":"Royal Victoria Infirmary - Victoria Wing, Newcastle upon Tyne NE1 4LP, UK","placeId":"ChIJ7ZEpJwBxfkgR0gxUoBcGtJQ"},{"name":"Mermaid Arts Centre Wicklow","city":"Bray","country":"Ireland","chain":"Independent","category":"Independent","lat":53.201571,"lng":-6.1091761,"address":"Main St, Bray, Co. Wicklow, A98 N5P1, Ireland","placeId":"ChIJR0pfq3qoZ0gRgNMqSBos6IQ"},{"name":"Mockingbird Cinema","city":"Birmingham","country":"United Kingdom","chain":"Independent","category":"Independent","lat":52.4754886,"lng":-1.8841699,"address":"Mockingbird House, The Custard Factory, Gibb St, Deritend, Birmingham B9 4AA, UK","placeId":"ChIJjZycjYC8cEgRm2n8Uif-HYI"},{"name":"Moray Playhouse Elgin","city":"Elgin","country":"United Kingdom","chain":"Independent","category":"Independent","lat":57.6488889,"lng":-3.3183333,"address":"High St, Elgin IV30 1DJ, UK","placeId":"ChIJZW3ah6wLhUgRBBWGehQYMjQ"},{"name":"Movie Starr","city":"Canvey Island","country":"United Kingdom","chain":"Independent","category":"Independent","lat":51.512683,"lng":0.597309,"address":"Eastern Esplanade, Canvey Island SS8 7DN, UK","placeId":"ChIJU19yPXbQ2EcRdWniIBl7seg"},{"name":"Moviehouse City Side Belfast","city":"Belfast","country":"United Kingdom","chain":"Independent","category":"Independent","lat":54.6083333,"lng":-5.9266667,"address":"City Side Retail Park, 100 - 150 York St, Belfast BT15 1WA, UK","placeId":"ChIJCa2GUbMJYUgRsaVFUr2y-Tc"},{"name":"Moviehouse Coleraine","city":"Coleraine","country":"United Kingdom","chain":"Independent","category":"Independent","lat":55.1200804,"lng":-6.677785,"address":"The Jet Centre - Cinema, 10 Pin Bowling, Mini Golf, Children Soft Play, Arcade., 1 Riverside Park S, Coleraine BT51 3AW, UK","placeId":"ChIJ7_wUTUU7YEgRb0WM_R3LVZk"},{"name":"Moviehouse Glengormley","city":"Belfast","country":"United Kingdom","chain":"Independent","category":"Independent","lat":54.668939,"lng":-5.957043,"address":"13 Glenwell Rd, Glengormley, Newtownabbey BT36 7RF, UK","placeId":"ChIJQT-017unYUgR6TLbq4eKWkk"},{"name":"Moviehouse Maghera","city":"Maghera","country":"United Kingdom","chain":"Independent","category":"Independent","lat":54.844043,"lng":-6.673186,"address":"51 St Lurachs Rd, Maghera BT46 5JE, UK","placeId":"ChIJ89HBKrZDYEgRGV84ZklJsKs"},{"name":"Movies at Dundrum","city":"Dundrum","country":"Ireland","chain":"Independent","category":"Independent","lat":53.2879156,"lng":-6.2420116,"address":"Dundrum Town Centre, Sandyford Rd, Dundrum, Dublin 16, Ireland","placeId":"ChIJ_ZTI93EJZ0gRzetZ06YETOg"},{"name":"Movies at Gorey","city":"Gorey","country":"Ireland","chain":"Independent","category":"Independent","lat":52.6717706,"lng":-6.2708176,"address":"Raheenagurren East, Courtown Rd, Raheenagurren East, Gorey, Co. Wexford, Y25 KR12, Ireland","placeId":"ChIJIVzKAKTnZ0gRrrn8AIgDlzk"},{"name":"Movies at Swords","city":"Swords","country":"Ireland","chain":"Independent","category":"Independent","lat":53.45506,"lng":-6.219173,"address":"Pavilions Shopping Centre, Miltonsfields, Swords, Co. Dublin, Ireland","placeId":"ChIJNYjAxfEQZ0gRVIKpXyjZzjQ"},{"name":"Movies at The Square","city":"Dublin","country":"Ireland","chain":"Independent","category":"Independent","lat":53.2868744,"lng":-6.3725179,"address":"The Square Shopping Centre, Tallaght, Dublin 24, Ireland","placeId":"ChIJxVXQ67V0Z0gRSWFcCC0D5ko"},{"name":"Movieworld Mayo Castlebar","city":"Castlebar","country":"Ireland","chain":"Independent","category":"Independent","lat":53.8568376,"lng":-9.2871481,"address":"Mayo Leisure Point, Moneen Rd, Gorteendrunagh, Castlebar, Co. Mayo, F23 VW89, Ireland","placeId":"ChIJW_eK-wldWUgR8uA-CiUia_E"},{"name":"Mowlem Theatre Swanage","city":"Swanage","country":"United Kingdom","chain":"Independent","category":"Independent","lat":50.6093002,"lng":-1.9569092,"address":"Shore Rd, Swanage BH19 1DD, UK","placeId":"ChIJVWqQG2UJc0gRpVphG0uY7xE"},{"name":"Music Hall Old Market","city":"Shrewsbury","country":"United Kingdom","chain":"Independent","category":"Independent","lat":52.7073355,"lng":-2.754479,"address":"Shrewsbury SY1 1LH, UK","placeId":"ChIJqZIatlCeekgR62GDz_fiiyM"},{"name":"National Film and Television School","city":"Beaconsfield","country":"United Kingdom","chain":"Independent","category":"Independent","lat":51.6052459,"lng":-0.6373134,"address":"Studios, Station Rd, Beaconsfield HP9 1LG, UK","placeId":"ChIJWwIMjZhmdkgRjyuPIxB-E3w"},{"name":"Neo Woolacombe Bay Hotel","city":"Woolacombe","country":"United Kingdom","chain":"Independent","category":"Independent","lat":51.171037,"lng":-4.2056549,"address":"Bay Hotel, South St, Woolacombe EX34 7BN, UK","placeId":"ChIJBZv6QcsjbEgRRPpEVplEd3Y"},{"name":"Nerve Centre Derry","city":"Derry","country":"United Kingdom","chain":"Independent","category":"Independent","lat":54.9964781,"lng":-7.3223314,"address":"7-8 Magazine St, Londonderry BT48 6HJ, UK","placeId":"ChIJ7QfkZILhX0gRYQZ7YLztZFU"},{"name":"Neuadd Dwyfor Pwllheli TownHall","city":"Pwllheli","country":"United Kingdom","chain":"Independent","category":"Independent","lat":52.889275,"lng":-4.4170898,"address":"19 Penlan St, Pwllheli LL53 5DE, UK","placeId":"ChIJ-1d7GaaWZUgRt4_uRyxE4c8"},